{
"type": "FeatureCollection",
"crs": { "type": "name", "properties": { "name": "urn:ogc:def:crs:OGC:1.3:CRS84" } },
"features": [
{ "type": "Feature", "properties": { "line": "4-6-6 Express", "name": "Astor Pl", "notes": "4 nights, 6-all times, 6 Express-weekdays AM southbound, PM northbound", "objectid": 1.0, "url": "http:\/\/web.mta.info\/nyct\/service\/" }, "geometry": { "type": "Point", "coordinates": [ -73.991069998619665, 40.730054000289783 ] } },
{ "type": "Feature", "properties": { "line": "4-6-6 Express", "name": "Canal St", "notes": "4 nights, 6-all times, 6 Express-weekdays AM southbound, PM northbound", "objectid": 2.0, "url": "http:\/\/web.mta.info\/nyct\/service\/" }, "geometry": { "type": "Point", "coordinates": [ -74.000192999273281, 40.718803001077092 ] } },
{ "type": "Feature", "properties": { "line": "1-2", "name": "50th St", "notes": "1-all times, 2-nights", "objectid": 3.0, "url": "http:\/\/web.mta.info\/nyct\/service\/" }, "geometry": { "type": "Point", "coordinates": [ -73.983848999866254, 40.761727999614187 ] } },
{ "type": "Feature", "properties": { "line": "2-3-4", "name": "Bergen St", "notes": "4-nights, 3-all other times, 2-all times", "objectid": 4.0, "url": "http:\/\/web.mta.info\/nyct\/service\/" }, "geometry": { "type": "Point", "coordinates": [ -73.974999151168078, 40.68086213682956 ] } },
{ "type": "Feature", "properties": { "line": "3-4", "name": "Pennsylvania Ave", "notes": "4-nights, 3-all other times", "objectid": 5.0, "url": "http:\/\/web.mta.info\/nyct\/service\/" }, "geometry": { "type": "Point", "coordinates": [ -73.894885911540612, 40.664714451435678 ] } },
{ "type": "Feature", "properties": { "line": "1", "name": "238th St", "notes": "1-all times, exit only northbound", "objectid": 6.0, "url": "http:\/\/web.mta.info\/nyct\/service\/" }, "geometry": { "type": "Point", "coordinates": [ -73.900870000185222, 40.884667000649749 ] } },
{ "type": "Feature", "properties": { "line": "A-B-C", "name": "Cathedral Pkwy (110th St)", "notes": "A-nights, B-weekdays and evenings, C-all times exc nights", "objectid": 7.0, "url": "http:\/\/web.mta.info\/nyct\/service\/" }, "geometry": { "type": "Point", "coordinates": [ -73.958066706613636, 40.800581558114956 ] } },
{ "type": "Feature", "properties": { "line": "A-C", "name": "Kingston - Throop Aves", "notes": "A-nights, C-all other times", "objectid": 8.0, "url": "http:\/\/web.mta.info\/nyct\/service\/" }, "geometry": { "type": "Point", "coordinates": [ -73.940858998712628, 40.67991899941601 ] } },
{ "type": "Feature", "properties": { "line": "E-M-R", "name": "65th St", "notes": "E-nights, R-all other times, M-weekdays and evenings", "objectid": 9.0, "url": "http:\/\/web.mta.info\/nyct\/service\/" }, "geometry": { "type": "Point", "coordinates": [ -73.898788378330096, 40.749719529356753 ] } },
{ "type": "Feature", "properties": { "line": "E-M-R", "name": "36th St", "notes": "E-nights, R-all other times, M-weekdays and evenings", "objectid": 10.0, "url": "http:\/\/web.mta.info\/nyct\/service\/" }, "geometry": { "type": "Point", "coordinates": [ -73.929018184615387, 40.751960044010779 ] } },
{ "type": "Feature", "properties": { "line": "J-M-Z", "name": "Delancey St - Essex St", "notes": "J-all times, M-all times exc nights, Z-rush hours AM westbound, PM eastbound", "objectid": 11.0, "url": "http:\/\/web.mta.info\/nyct\/service\/" }, "geometry": { "type": "Point", "coordinates": [ -73.987409402029741, 40.718306056186186 ] } },
{ "type": "Feature", "properties": { "line": "J-Z", "name": "Van Siclen Ave", "notes": "Z-rush hours AM westbound, PM eastbound, J-all other times", "objectid": 12.0, "url": "http:\/\/web.mta.info\/nyct\/service\/" }, "geometry": { "type": "Point", "coordinates": [ -73.891657727024452, 40.678028214477827 ] } },
{ "type": "Feature", "properties": { "line": "J-Z", "name": "Norwood Ave", "notes": "Z-rush hours AM westbound, PM eastbound, J-all other times", "objectid": 13.0, "url": "http:\/\/web.mta.info\/nyct\/service\/" }, "geometry": { "type": "Point", "coordinates": [ -73.87962599910783, 40.681520000456828 ] } },
{ "type": "Feature", "properties": { "line": "J-Z", "name": "104th-102nd Sts", "notes": "Z-rush hours AM westbound, PM eastbound, J-all other times", "objectid": 14.0, "url": "http:\/\/web.mta.info\/nyct\/service\/" }, "geometry": { "type": "Point", "coordinates": [ -73.844435000296841, 40.695165998233733 ] } },
{ "type": "Feature", "properties": { "line": "B-D-N-Q-R", "name": "DeKalb Ave", "notes": "B-weekdays and evenings, D-all other times, N-nights, R-all other times, Q-all times", "objectid": 15.0, "url": "http:\/\/web.mta.info\/nyct\/service\/" }, "geometry": { "type": "Point", "coordinates": [ -73.98177094440949, 40.690648119969794 ] } },
{ "type": "Feature", "properties": { "line": "A-S", "name": "Beach 105th St", "notes": "A-rush hours AM northbound, PM southbound, S Broad Channel to Rockaway Park-all times", "objectid": 16.0, "url": "http:\/\/web.mta.info\/nyct\/service\/" }, "geometry": { "type": "Point", "coordinates": [ -73.827580750345277, 40.583268438102863 ] } },
{ "type": "Feature", "properties": { "line": "A-S", "name": "Beach 90th St", "notes": "A-rush hours AM northbound, PM southbound, S Broad Channel to Rockaway Park-all times", "objectid": 17.0, "url": "http:\/\/web.mta.info\/nyct\/service\/" }, "geometry": { "type": "Point", "coordinates": [ -73.813651404196321, 40.588091564573247 ] } },
{ "type": "Feature", "properties": { "line": "2-5", "name": "Freeman St", "notes": "2-all times, 5-all times exc nights, skips rush hours AM southbound, PM northbound", "objectid": 18.0, "url": "http:\/\/web.mta.info\/nyct\/service\/" }, "geometry": { "type": "Point", "coordinates": [ -73.891752253494644, 40.829987446384116 ] } },
{ "type": "Feature", "properties": { "line": "2-5", "name": "Intervale Ave", "notes": "2-all times, 5-all times exc nights, skips rush hours AM southbound, PM northbound", "objectid": 19.0, "url": "http:\/\/web.mta.info\/nyct\/service\/" }, "geometry": { "type": "Point", "coordinates": [ -73.896617384616462, 40.822142131170786 ] } },
{ "type": "Feature", "properties": { "line": "B-D", "name": "182nd-183rd Sts", "notes": "B-rush hours, D-all times, skips rush hours AM southbound, PM northbound", "objectid": 20.0, "url": "http:\/\/web.mta.info\/nyct\/service\/" }, "geometry": { "type": "Point", "coordinates": [ -73.900740999989651, 40.856092998818639 ] } },
{ "type": "Feature", "properties": { "line": "B-D", "name": "174th-175th Sts", "notes": "B-rush hours, D-all times, skips rush hours AM southbound, PM northbound", "objectid": 21.0, "url": "http:\/\/web.mta.info\/nyct\/service\/" }, "geometry": { "type": "Point", "coordinates": [ -73.910136000500785, 40.845899999834138 ] } },
{ "type": "Feature", "properties": { "line": "B-D", "name": "167th St", "notes": "B-rush hours, D-all times, skips rush hours AM southbound, PM northbound", "objectid": 22.0, "url": "http:\/\/web.mta.info\/nyct\/service\/" }, "geometry": { "type": "Point", "coordinates": [ -73.918432000822534, 40.833768998627967 ] } },
{ "type": "Feature", "properties": { "line": "7-7 Express", "name": "Mets - Willets Point", "notes": "7-all times, 7 Express-rush hours AM westbound, PM eastbound", "objectid": 23.0, "url": "http:\/\/web.mta.info\/nyct\/service\/" }, "geometry": { "type": "Point", "coordinates": [ -73.845624998417904, 40.754621998812617 ] } },
{ "type": "Feature", "properties": { "line": "7-7 Express", "name": "Junction Blvd", "notes": "7-all times, 7 Express-rush hours AM westbound, PM eastbound", "objectid": 24.0, "url": "http:\/\/web.mta.info\/nyct\/service\/" }, "geometry": { "type": "Point", "coordinates": [ -73.869527001035152, 40.749144999488358 ] } },
{ "type": "Feature", "properties": { "line": "7-7 Express", "name": "Flushing - Main St", "notes": "7-all times, 7 Express-rush hours AM westbound, PM eastbound", "objectid": 25.0, "url": "http:\/\/web.mta.info\/nyct\/service\/" }, "geometry": { "type": "Point", "coordinates": [ -73.83003000262508, 40.759599999150119 ] } },
{ "type": "Feature", "properties": { "line": "6-6 Express", "name": "Buhre Ave", "notes": "6 Express-weekdays AM southbound, PM northbound, 6-all other times", "objectid": 26.0, "url": "http:\/\/web.mta.info\/nyct\/service\/" }, "geometry": { "type": "Point", "coordinates": [ -73.832569000037438, 40.846809998885504 ] } },
{ "type": "Feature", "properties": { "line": "6-6 Express", "name": "3rd Ave - 138th St", "notes": "6-all times, 6 Express-weekdays AM southbound, PM northbound", "objectid": 27.0, "url": "http:\/\/web.mta.info\/nyct\/service\/" }, "geometry": { "type": "Point", "coordinates": [ -73.926138000141336, 40.81047600117261 ] } },
{ "type": "Feature", "properties": { "line": "6-6 Express", "name": "Castle Hill Ave", "notes": "6 Express-weekdays AM southbound, PM northbound, 6-all other times", "objectid": 28.0, "url": "http:\/\/web.mta.info\/nyct\/service\/" }, "geometry": { "type": "Point", "coordinates": [ -73.851221999614722, 40.834254998254622 ] } },
{ "type": "Feature", "properties": { "line": "4-5-6-6 Express", "name": "Brooklyn Bridge - City Hall", "notes": "4,6-all times, 5-all times exc nights, 6 Express-weekdays AM southbound, PM northbound", "objectid": 29.0, "url": "http:\/\/web.mta.info\/nyct\/service\/" }, "geometry": { "type": "Point", "coordinates": [ -74.004131000588501, 40.713064999433136 ] } },
{ "type": "Feature", "properties": { "line": "6-6 Express", "name": "Zerega Ave", "notes": "6 Express-weekdays AM southbound, PM northbound, 6-all other times", "objectid": 30.0, "url": "http:\/\/web.mta.info\/nyct\/service\/" }, "geometry": { "type": "Point", "coordinates": [ -73.847035998754393, 40.836488000608156 ] } },
{ "type": "Feature", "properties": { "line": "4-5-6-6 Express", "name": "Grand Central - 42nd St", "notes": "4,6-all times, 5-all times exc nights, 6 Express-weekdays AM southbound, PM northbound", "objectid": 31.0, "url": "http:\/\/web.mta.info\/nyct\/service\/" }, "geometry": { "type": "Point", "coordinates": [ -73.976713299258407, 40.751807429816338 ] } },
{ "type": "Feature", "properties": { "line": "4-6-6 Express", "name": "33rd St", "notes": "4 nights, 6-all times, 6 Express-weekdays AM southbound, PM northbound", "objectid": 32.0, "url": "http:\/\/web.mta.info\/nyct\/service\/" }, "geometry": { "type": "Point", "coordinates": [ -73.982076001489474, 40.746080999091447 ] } },
{ "type": "Feature", "properties": { "line": "4-6-6 Express", "name": "96th St", "notes": "4 nights, 6-all times, 6 Express-weekdays AM southbound, PM northbound", "objectid": 33.0, "url": "http:\/\/web.mta.info\/nyct\/service\/" }, "geometry": { "type": "Point", "coordinates": [ -73.951070001542504, 40.785671999986072 ] } },
{ "type": "Feature", "properties": { "line": "4-6-6 Express", "name": "77th St", "notes": "4 nights, 6-all times, 6 Express-weekdays AM southbound, PM northbound", "objectid": 34.0, "url": "http:\/\/web.mta.info\/nyct\/service\/" }, "geometry": { "type": "Point", "coordinates": [ -73.959873998860473, 40.773620000746149 ] } },
{ "type": "Feature", "properties": { "line": "J-Z", "name": "Chauncey St", "notes": "Z-rush hours AM westbound, PM eastbound, J-all other times", "objectid": 35.0, "url": "http:\/\/web.mta.info\/nyct\/service\/" }, "geometry": { "type": "Point", "coordinates": [ -73.910383570333764, 40.682851300878042 ] } },
{ "type": "Feature", "properties": { "line": "D-N-R", "name": "Union St", "notes": "D,N-nights, R-all other times", "objectid": 36.0, "url": "http:\/\/web.mta.info\/nyct\/service\/" }, "geometry": { "type": "Point", "coordinates": [ -73.983109999096726, 40.67731566735096 ] } },
{ "type": "Feature", "properties": { "line": "E-M-R", "name": "Elmhurst Ave", "notes": "E-nights, R-all other times, M-weekdays and evenings", "objectid": 37.0, "url": "http:\/\/web.mta.info\/nyct\/service\/" }, "geometry": { "type": "Point", "coordinates": [ -73.882034746586399, 40.742370079721688 ] } },
{ "type": "Feature", "properties": { "line": "A-C", "name": "Ralph Ave", "notes": "A-nights, C-all other times", "objectid": 38.0, "url": "http:\/\/web.mta.info\/nyct\/service\/" }, "geometry": { "type": "Point", "coordinates": [ -73.920785999333063, 40.678822000873375 ] } },
{ "type": "Feature", "properties": { "line": "2-5", "name": "Pelham Pkwy", "notes": "2-all times, 5-rush hours AM southbound, PM northbound", "objectid": 39.0, "url": "http:\/\/web.mta.info\/nyct\/service\/" }, "geometry": { "type": "Point", "coordinates": [ -73.867480678500414, 40.857192409160596 ] } },
{ "type": "Feature", "properties": { "line": "2-5", "name": "Gun Hill Rd", "notes": "2-all times, 5-rush hours AM southbound, PM northbound", "objectid": 40.0, "url": "http:\/\/web.mta.info\/nyct\/service\/" }, "geometry": { "type": "Point", "coordinates": [ -73.866134105387033, 40.877839385172024 ] } },
{ "type": "Feature", "properties": { "line": "2-5", "name": "Nereid Ave (238 St)", "notes": "2-all times, 5-rush hours AM southbound, PM northbound", "objectid": 41.0, "url": "http:\/\/web.mta.info\/nyct\/service\/" }, "geometry": { "type": "Point", "coordinates": [ -73.854315310762203, 40.898286515575286 ] } },
{ "type": "Feature", "properties": { "line": "2-3-4-5", "name": "Franklin Ave", "notes": "2,4-all times, 3-all times exc nights, 5-weekdays", "objectid": 42.0, "url": "http:\/\/web.mta.info\/nyct\/service\/" }, "geometry": { "type": "Point", "coordinates": [ -73.958099736776902, 40.67076515344894 ] } },
{ "type": "Feature", "properties": { "line": "2-5", "name": "Simpson St", "notes": "2-all times, 5-all times exc nights, skips rush hours AM southbound, PM northbound", "objectid": 43.0, "url": "http:\/\/web.mta.info\/nyct\/service\/" }, "geometry": { "type": "Point", "coordinates": [ -73.893066395079032, 40.823976841237396 ] } },
{ "type": "Feature", "properties": { "line": "2-5", "name": "Bronx Park East", "notes": "2-all times, 5-rush hours AM southbound, PM northbound", "objectid": 44.0, "url": "http:\/\/web.mta.info\/nyct\/service\/" }, "geometry": { "type": "Point", "coordinates": [ -73.868356091780981, 40.848768666338934 ] } },
{ "type": "Feature", "properties": { "line": "2-5", "name": "Winthrop St", "notes": "2-all times, 5-weekdays", "objectid": 45.0, "url": "http:\/\/web.mta.info\/nyct\/service\/" }, "geometry": { "type": "Point", "coordinates": [ -73.950079345909941, 40.65665931376077 ] } },
{ "type": "Feature", "properties": { "line": "3-4", "name": "Van Siclen Ave", "notes": "4-nights, 3-all other times", "objectid": 46.0, "url": "http:\/\/web.mta.info\/nyct\/service\/" }, "geometry": { "type": "Point", "coordinates": [ -73.889404917301064, 40.665517963059635 ] } },
{ "type": "Feature", "properties": { "line": "4", "name": "149th St - Grand Concourse", "notes": "4-all times", "objectid": 47.0, "url": "http:\/\/web.mta.info\/nyct\/service\/" }, "geometry": { "type": "Point", "coordinates": [ -73.927384754261794, 40.818303443723153 ] } },
{ "type": "Feature", "properties": { "line": "4", "name": "161st St - Yankee Stadium", "notes": "4-all times", "objectid": 48.0, "url": "http:\/\/web.mta.info\/nyct\/service\/" }, "geometry": { "type": "Point", "coordinates": [ -73.925691995057335, 40.828230327421693 ] } },
{ "type": "Feature", "properties": { "line": "4-5-6-6 Express", "name": "Lexington Ave - 59th St", "notes": "4,6-all times, 5-all times exc nights, 6 Express-weekdays AM southbound, PM northbound", "objectid": 49.0, "url": "http:\/\/web.mta.info\/nyct\/service\/" }, "geometry": { "type": "Point", "coordinates": [ -73.967967000473195, 40.762526000304575 ] } },
{ "type": "Feature", "properties": { "line": "6", "name": "E 149th St", "notes": "6-all times", "objectid": 50.0, "url": "http:\/\/web.mta.info\/nyct\/service\/" }, "geometry": { "type": "Point", "coordinates": [ -73.904097998759454, 40.812117998272029 ] } },
{ "type": "Feature", "properties": { "line": "6", "name": "Morrison Av - Soundview", "notes": "6-all times", "objectid": 51.0, "url": "http:\/\/web.mta.info\/nyct\/service\/" }, "geometry": { "type": "Point", "coordinates": [ -73.874515999294857, 40.829521001567471 ] } },
{ "type": "Feature", "properties": { "line": "6", "name": "Whitlock Ave", "notes": "6-all times", "objectid": 52.0, "url": "http:\/\/web.mta.info\/nyct\/service\/" }, "geometry": { "type": "Point", "coordinates": [ -73.886282998532494, 40.826525000559037 ] } },
{ "type": "Feature", "properties": { "line": "6", "name": "St Lawrence Ave", "notes": "6-all times", "objectid": 53.0, "url": "http:\/\/web.mta.info\/nyct\/service\/" }, "geometry": { "type": "Point", "coordinates": [ -73.867617999236728, 40.831509000523297 ] } },
{ "type": "Feature", "properties": { "line": "7-7 Express", "name": "Woodside - 61st St", "notes": "7-all times, 7 Express-rush hours AM westbound, PM eastbound", "objectid": 54.0, "url": "http:\/\/web.mta.info\/nyct\/service\/" }, "geometry": { "type": "Point", "coordinates": [ -73.902984001730061, 40.745630001138395 ] } },
{ "type": "Feature", "properties": { "line": "A", "name": "Far Rockaway - Mott Ave", "notes": "A-all times", "objectid": 55.0, "url": "http:\/\/web.mta.info\/nyct\/service\/" }, "geometry": { "type": "Point", "coordinates": [ -73.755404999247318, 40.603995001687544 ] } },
{ "type": "Feature", "properties": { "line": "A-B-C", "name": "72nd St", "notes": "A-nights, B-weekdays and evenings, C-all times exc nights", "objectid": 56.0, "url": "http:\/\/web.mta.info\/nyct\/service\/" }, "geometry": { "type": "Point", "coordinates": [ -73.976336575217999, 40.775519397292577 ] } },
{ "type": "Feature", "properties": { "line": "A-B-C", "name": "96th St", "notes": "A-nights, B-weekdays and evenings, C-all times exc nights", "objectid": 57.0, "url": "http:\/\/web.mta.info\/nyct\/service\/" }, "geometry": { "type": "Point", "coordinates": [ -73.96460245687166, 40.791618797670139 ] } },
{ "type": "Feature", "properties": { "line": "A-C", "name": "168th St", "notes": "A-all times, C-all times exc nights", "objectid": 58.0, "url": "http:\/\/web.mta.info\/nyct\/service\/" }, "geometry": { "type": "Point", "coordinates": [ -73.939560999854251, 40.840718999907949 ] } },
{ "type": "Feature", "properties": { "line": "B-D", "name": "Kingsbridge Rd", "notes": "B-rush hours, D-all times", "objectid": 59.0, "url": "http:\/\/web.mta.info\/nyct\/service\/" }, "geometry": { "type": "Point", "coordinates": [ -73.893509000033106, 40.866977999999449 ] } },
{ "type": "Feature", "properties": { "line": "B-D-F-M", "name": "42nd St - Bryant Pk", "notes": "B,M-weekdays and evenings, D,F-all times", "objectid": 60.0, "url": "http:\/\/web.mta.info\/nyct\/service\/" }, "geometry": { "type": "Point", "coordinates": [ -73.984590999047114, 40.754184001312545 ] } },
{ "type": "Feature", "properties": { "line": "B-Q-S", "name": "Prospect Park", "notes": "B-weekdays and evenings, Q,S to Franklin Av-Fulton St-all times", "objectid": 61.0, "url": "http:\/\/web.mta.info\/nyct\/service\/" }, "geometry": { "type": "Point", "coordinates": [ -73.962031304266091, 40.6616334551018 ] } },
{ "type": "Feature", "properties": { "line": "D", "name": "55th St", "notes": "D-all times", "objectid": 62.0, "url": "http:\/\/web.mta.info\/nyct\/service\/" }, "geometry": { "type": "Point", "coordinates": [ -73.995348825957421, 40.631478760937448 ] } },
{ "type": "Feature", "properties": { "line": "E", "name": "Jamaica - Van Wyck", "notes": "E-all times", "objectid": 63.0, "url": "http:\/\/web.mta.info\/nyct\/service\/" }, "geometry": { "type": "Point", "coordinates": [ -73.817012871354052, 40.70289855287313 ] } },
{ "type": "Feature", "properties": { "line": "E-F", "name": "Kew Gardens - Union Tpke", "notes": "E,F-all times", "objectid": 64.0, "url": "http:\/\/web.mta.info\/nyct\/service\/" }, "geometry": { "type": "Point", "coordinates": [ -73.8303702709878, 40.714034819571026 ] } },
{ "type": "Feature", "properties": { "line": "E-J-Z", "name": "Sutphin Blvd - Archer Av", "notes": "E,J-all times, Z-rush hours AM westbound, PM eastbound", "objectid": 65.0, "url": "http:\/\/web.mta.info\/nyct\/service\/" }, "geometry": { "type": "Point", "coordinates": [ -73.808004719638333, 40.700382424235002 ] } },
{ "type": "Feature", "properties": { "line": "E-M", "name": "Court Sq - 23rd St", "notes": "E-all times, M-weekdays and evenings", "objectid": 66.0, "url": "http:\/\/web.mta.info\/nyct\/service\/" }, "geometry": { "type": "Point", "coordinates": [ -73.94605470266329, 40.747768121414325 ] } },
{ "type": "Feature", "properties": { "line": "E-M-R", "name": "67th Ave", "notes": "E-nights, R-all other times, M-weekdays and evenings", "objectid": 67.0, "url": "http:\/\/web.mta.info\/nyct\/service\/" }, "geometry": { "type": "Point", "coordinates": [ -73.852860484349065, 40.726505475813006 ] } },
{ "type": "Feature", "properties": { "line": "E-M-R", "name": "Grand Ave - Newtown", "notes": "E-nights, R-all other times, M-weekdays and evenings", "objectid": 68.0, "url": "http:\/\/web.mta.info\/nyct\/service\/" }, "geometry": { "type": "Point", "coordinates": [ -73.877220856691821, 40.736813418197144 ] } },
{ "type": "Feature", "properties": { "line": "F", "name": "Ditmas Ave", "notes": "F-all times", "objectid": 69.0, "url": "http:\/\/web.mta.info\/nyct\/service\/" }, "geometry": { "type": "Point", "coordinates": [ -73.978171999651607, 40.63611866666291 ] } },
{ "type": "Feature", "properties": { "line": "G", "name": "Classon Ave", "notes": "G-all times", "objectid": 70.0, "url": "http:\/\/web.mta.info\/nyct\/service\/" }, "geometry": { "type": "Point", "coordinates": [ -73.95999000137212, 40.688889000264552 ] } },
{ "type": "Feature", "properties": { "line": "G", "name": "Broadway", "notes": "G-all times", "objectid": 71.0, "url": "http:\/\/web.mta.info\/nyct\/service\/" }, "geometry": { "type": "Point", "coordinates": [ -73.950312256066212, 40.706126576274166 ] } },
{ "type": "Feature", "properties": { "line": "L", "name": "Lorimer St", "notes": "L-all times", "objectid": 72.0, "url": "http:\/\/web.mta.info\/nyct\/service\/" }, "geometry": { "type": "Point", "coordinates": [ -73.950247999969719, 40.714072000647171 ] } },
{ "type": "Feature", "properties": { "line": "L", "name": "Sutter Ave", "notes": "L-all times", "objectid": 73.0, "url": "http:\/\/web.mta.info\/nyct\/service\/" }, "geometry": { "type": "Point", "coordinates": [ -73.901916000420798, 40.66914500061398 ] } },
{ "type": "Feature", "properties": { "line": "L", "name": "Wilson Ave", "notes": "L-all times", "objectid": 74.0, "url": "http:\/\/web.mta.info\/nyct\/service\/" }, "geometry": { "type": "Point", "coordinates": [ -73.903958604918643, 40.688866542460239 ] } },
{ "type": "Feature", "properties": { "line": "J", "name": "Halsey St", "notes": "J-all times", "objectid": 75.0, "url": "http:\/\/web.mta.info\/nyct\/service\/" }, "geometry": { "type": "Point", "coordinates": [ -73.916638884219395, 40.686415270704344 ] } },
{ "type": "Feature", "properties": { "line": "J-M", "name": "Lorimer St", "notes": "J-all times, skips weekdays AM westbound, PM eastbound, M-all times exc nights", "objectid": 76.0, "url": "http:\/\/web.mta.info\/nyct\/service\/" }, "geometry": { "type": "Point", "coordinates": [ -73.947354998842044, 40.703844000042096 ] } },
{ "type": "Feature", "properties": { "line": "N", "name": "8th Ave", "notes": "N-all times", "objectid": 77.0, "url": "http:\/\/web.mta.info\/nyct\/service\/" }, "geometry": { "type": "Point", "coordinates": [ -74.011515997721574, 40.634970999647166 ] } },
{ "type": "Feature", "properties": { "line": "N-W", "name": "36th Ave", "notes": "N-all times, W part time", "objectid": 78.0, "url": "http:\/\/web.mta.info\/nyct\/service\/" }, "geometry": { "type": "Point", "coordinates": [ -73.929861999118003, 40.756442000510397 ] } },
{ "type": "Feature", "properties": { "line": "N-W", "name": "Broadway", "notes": "N-all times, W part time", "objectid": 79.0, "url": "http:\/\/web.mta.info\/nyct\/service\/" }, "geometry": { "type": "Point", "coordinates": [ -73.925822999199056, 40.761431998800546 ] } },
{ "type": "Feature", "properties": { "line": "N-Q-R-W", "name": "Times Sq - 42nd St", "notes": "N,Q-all times, R-all times exc nights, W part time", "objectid": 80.0, "url": "http:\/\/web.mta.info\/nyct\/service\/" }, "geometry": { "type": "Point", "coordinates": [ -73.986768001539758, 40.754611998515422 ] } },
{ "type": "Feature", "properties": { "line": "S", "name": "Grand Central - 42nd St", "notes": "S to Times Sq-all times exc nights, closed nights-use 7", "objectid": 81.0, "url": "http:\/\/web.mta.info\/nyct\/service\/" }, "geometry": { "type": "Point", "coordinates": [ -73.979188999891008, 40.75276866674217 ] } },
{ "type": "Feature", "properties": { "line": "S", "name": "Park Pl", "notes": "S Franklin Av-Fulton St to Prospect Park-all times", "objectid": 82.0, "url": "http:\/\/web.mta.info\/nyct\/service\/" }, "geometry": { "type": "Point", "coordinates": [ -73.957624000746335, 40.674771666852628 ] } },
{ "type": "Feature", "properties": { "line": "A-S", "name": "111th St", "notes": "S Euclid Av to Ozone Park-Lefferts Blvd-nights, A-all other times", "objectid": 83.0, "url": "http:\/\/web.mta.info\/nyct\/service\/" }, "geometry": { "type": "Point", "coordinates": [ -73.832162998453882, 40.684331000012378 ] } },
{ "type": "Feature", "properties": { "line": "B-D-F-M", "name": "W 4th St - Washington Sq (Lower)", "notes": "B,M-weekdays and evenings, D,F-all times", "objectid": 84.0, "url": "http:\/\/web.mta.info\/nyct\/service\/" }, "geometry": { "type": "Point", "coordinates": [ -74.00030814755975, 40.732254493367876 ] } },
{ "type": "Feature", "properties": { "line": "4-6-6 Express", "name": "51st St", "notes": "4 nights, 6-all times, 6 Express-weekdays AM southbound, PM northbound", "objectid": 85.0, "url": "http:\/\/web.mta.info\/nyct\/service\/" }, "geometry": { "type": "Point", "coordinates": [ -73.971920000699825, 40.757106999893161 ] } },
{ "type": "Feature", "properties": { "line": "1-2", "name": "86th St", "notes": "1-all times, 2-nights", "objectid": 86.0, "url": "http:\/\/web.mta.info\/nyct\/service\/" }, "geometry": { "type": "Point", "coordinates": [ -73.97621799859327, 40.78864400073892 ] } },
{ "type": "Feature", "properties": { "line": "2-5", "name": "233rd St", "notes": "2-all times, 5-rush hours AM southbound, PM northbound", "objectid": 87.0, "url": "http:\/\/web.mta.info\/nyct\/service\/" }, "geometry": { "type": "Point", "coordinates": [ -73.857362395215432, 40.893143241383783 ] } },
{ "type": "Feature", "properties": { "line": "1-2", "name": "66th St - Lincoln Ctr", "notes": "1-all times, 2-nights", "objectid": 88.0, "url": "http:\/\/web.mta.info\/nyct\/service\/" }, "geometry": { "type": "Point", "coordinates": [ -73.982208999957834, 40.773440000520388 ] } },
{ "type": "Feature", "properties": { "line": "6-6 Express", "name": "Hunts Point Ave", "notes": "6-all times, 6 Express-weekdays AM southbound, PM northbound", "objectid": 89.0, "url": "http:\/\/web.mta.info\/nyct\/service\/" }, "geometry": { "type": "Point", "coordinates": [ -73.890549000173436, 40.820947998523067 ] } },
{ "type": "Feature", "properties": { "line": "1-2", "name": "Canal St", "notes": "1-all times, 2-nights", "objectid": 90.0, "url": "http:\/\/web.mta.info\/nyct\/service\/" }, "geometry": { "type": "Point", "coordinates": [ -74.006277000174805, 40.72285399778783 ] } },
{ "type": "Feature", "properties": { "line": "6-6 Express", "name": "Middletown Rd", "notes": "6 Express-weekdays AM southbound, PM northbound, 6-all other times", "objectid": 91.0, "url": "http:\/\/web.mta.info\/nyct\/service\/" }, "geometry": { "type": "Point", "coordinates": [ -73.836321997559438, 40.843863001283808 ] } },
{ "type": "Feature", "properties": { "line": "4-6-6 Express", "name": "23rd St", "notes": "4 nights, 6-all times, 6 Express-weekdays AM southbound, PM northbound", "objectid": 92.0, "url": "http:\/\/web.mta.info\/nyct\/service\/" }, "geometry": { "type": "Point", "coordinates": [ -73.986599002078876, 40.739864000474604 ] } },
{ "type": "Feature", "properties": { "line": "7-7 Express", "name": "Court Sq", "notes": "7-all times, 7 Express-rush hours AM westbound, PM eastbound", "objectid": 93.0, "url": "http:\/\/web.mta.info\/nyct\/service\/" }, "geometry": { "type": "Point", "coordinates": [ -73.94526400039679, 40.747022998896433 ] } },
{ "type": "Feature", "properties": { "line": "1-2", "name": "59th St - Columbus Circle", "notes": "1-all times, 2-nights", "objectid": 94.0, "url": "http:\/\/web.mta.info\/nyct\/service\/" }, "geometry": { "type": "Point", "coordinates": [ -73.981929002327149, 40.76824700063689 ] } },
{ "type": "Feature", "properties": { "line": "7-7 Express", "name": "Hunters Point Ave", "notes": "7-all times, 7 Express-rush hours AM westbound, PM eastbound", "objectid": 95.0, "url": "http:\/\/web.mta.info\/nyct\/service\/" }, "geometry": { "type": "Point", "coordinates": [ -73.948916000939093, 40.742215999863163 ] } },
{ "type": "Feature", "properties": { "line": "1-2", "name": "23rd St", "notes": "1-all times, 2-nights", "objectid": 96.0, "url": "http:\/\/web.mta.info\/nyct\/service\/" }, "geometry": { "type": "Point", "coordinates": [ -73.995657001648695, 40.744080999897513 ] } },
{ "type": "Feature", "properties": { "line": "1-2", "name": "Houston St", "notes": "1-all times, 2-nights", "objectid": 97.0, "url": "http:\/\/web.mta.info\/nyct\/service\/" }, "geometry": { "type": "Point", "coordinates": [ -74.005367001805809, 40.728251000730204 ] } },
{ "type": "Feature", "properties": { "line": "A-S", "name": "104th St", "notes": "S Euclid Av to Ozone Park-Lefferts Blvd-nights, A-all other times", "objectid": 98.0, "url": "http:\/\/web.mta.info\/nyct\/service\/" }, "geometry": { "type": "Point", "coordinates": [ -73.837683000609971, 40.681711001091195 ] } },
{ "type": "Feature", "properties": { "line": "A-S", "name": "Broad Channel", "notes": "A,S to Rockaway Park-all times", "objectid": 99.0, "url": "http:\/\/web.mta.info\/nyct\/service\/" }, "geometry": { "type": "Point", "coordinates": [ -73.815832687829626, 40.608402180696828 ] } },
{ "type": "Feature", "properties": { "line": "Q", "name": "Ocean Pkwy", "notes": "Q-all times", "objectid": 100.0, "url": "http:\/\/web.mta.info\/nyct\/service\/" }, "geometry": { "type": "Point", "coordinates": [ -73.968500999751768, 40.576311667080908 ] } },
{ "type": "Feature", "properties": { "line": "7-7 Express", "name": "Vernon Blvd - Jackson Ave", "notes": "7-all times, 7 Express-rush hours AM westbound, PM eastbound", "objectid": 101.0, "url": "http:\/\/web.mta.info\/nyct\/service\/" }, "geometry": { "type": "Point", "coordinates": [ -73.953580998752486, 40.742625999697488 ] } },
{ "type": "Feature", "properties": { "line": "4-6-6 Express", "name": "68th St - Hunter College", "notes": "4 nights, 6-all times, 6 Express-weekdays AM southbound, PM northbound", "objectid": 102.0, "url": "http:\/\/web.mta.info\/nyct\/service\/" }, "geometry": { "type": "Point", "coordinates": [ -73.963870001580418, 40.76814100049679 ] } },
{ "type": "Feature", "properties": { "line": "7-7 Express-N-W", "name": "Queensboro Plz", "notes": "7,N-all times, 7 Express-rush hours AM westbound, PM eastbound, W part time", "objectid": 103.0, "url": "http:\/\/web.mta.info\/nyct\/service\/" }, "geometry": { "type": "Point", "coordinates": [ -73.940163535190905, 40.750635651014804 ] } },
{ "type": "Feature", "properties": { "line": "A-S", "name": "Rockaway Blvd", "notes": "A-all times, S Euclid Av to Ozone Park-Lefferts Blvd-nights", "objectid": 104.0, "url": "http:\/\/web.mta.info\/nyct\/service\/" }, "geometry": { "type": "Point", "coordinates": [ -73.843852997957299, 40.680428999588415 ] } },
{ "type": "Feature", "properties": { "line": "4-5-6-6 Express", "name": "Union Sq - 14th St", "notes": "4,6-all times, 5-all times exc nights, 6 Express-weekdays AM southbound, PM northbound", "objectid": 105.0, "url": "http:\/\/web.mta.info\/nyct\/service\/" }, "geometry": { "type": "Point", "coordinates": [ -73.989950998818813, 40.734673000996125 ] } },
{ "type": "Feature", "properties": { "line": "G", "name": "Bedford - Nostrand Aves", "notes": "G-all times", "objectid": 106.0, "url": "http:\/\/web.mta.info\/nyct\/service\/" }, "geometry": { "type": "Point", "coordinates": [ -73.95352200064022, 40.689627001584441 ] } },
{ "type": "Feature", "properties": { "line": "F-G", "name": "15th St - Prospect Park", "notes": "F,G-all times", "objectid": 107.0, "url": "http:\/\/web.mta.info\/nyct\/service\/" }, "geometry": { "type": "Point", "coordinates": [ -73.979735805928726, 40.660035688100209 ] } },
{ "type": "Feature", "properties": { "line": "F-G", "name": "7th Ave", "notes": "F,G-all times", "objectid": 108.0, "url": "http:\/\/web.mta.info\/nyct\/service\/" }, "geometry": { "type": "Point", "coordinates": [ -73.980251179009443, 40.666244690019852 ] } },
{ "type": "Feature", "properties": { "line": "F-G", "name": "Ft Hamilton Pkwy", "notes": "F,G-all times", "objectid": 109.0, "url": "http:\/\/web.mta.info\/nyct\/service\/" }, "geometry": { "type": "Point", "coordinates": [ -73.975775999174743, 40.650781668034178 ] } },
{ "type": "Feature", "properties": { "line": "F-G", "name": "Church Ave", "notes": "F,G-all times", "objectid": 110.0, "url": "http:\/\/web.mta.info\/nyct\/service\/" }, "geometry": { "type": "Point", "coordinates": [ -73.979721162290843, 40.64427200012998 ] } },
{ "type": "Feature", "properties": { "line": "Q", "name": "Beverly Rd", "notes": "Q-all times", "objectid": 111.0, "url": "http:\/\/web.mta.info\/nyct\/service\/" }, "geometry": { "type": "Point", "coordinates": [ -73.964357796231255, 40.643904598604188 ] } },
{ "type": "Feature", "properties": { "line": "B-Q", "name": "Church Ave", "notes": "B-weekdays and evenings, Q-all times", "objectid": 112.0, "url": "http:\/\/web.mta.info\/nyct\/service\/" }, "geometry": { "type": "Point", "coordinates": [ -73.96288246192114, 40.650493246464841 ] } },
{ "type": "Feature", "properties": { "line": "B-Q", "name": "Newkirk Ave", "notes": "B-weekdays and evenings, Q-all times", "objectid": 113.0, "url": "http:\/\/web.mta.info\/nyct\/service\/" }, "geometry": { "type": "Point", "coordinates": [ -73.962694868372608, 40.635141937337892 ] } },
{ "type": "Feature", "properties": { "line": "Q", "name": "Parkside Ave", "notes": "Q-all times", "objectid": 114.0, "url": "http:\/\/web.mta.info\/nyct\/service\/" }, "geometry": { "type": "Point", "coordinates": [ -73.961453439876479, 40.655073041637159 ] } },
{ "type": "Feature", "properties": { "line": "2-3-4", "name": "Grand Army Plaza", "notes": "4-nights, 3-all other times, 2-all times", "objectid": 115.0, "url": "http:\/\/web.mta.info\/nyct\/service\/" }, "geometry": { "type": "Point", "coordinates": [ -73.970956331922807, 40.675294695103197 ] } },
{ "type": "Feature", "properties": { "line": "2-3-4-5", "name": "Atlantic Av - Barclay's Center", "notes": "2,4-all times, 3-all times exc nights, 5-weekdays", "objectid": 116.0, "url": "http:\/\/web.mta.info\/nyct\/service\/" }, "geometry": { "type": "Point", "coordinates": [ -73.977549935393853, 40.684420165267618 ] } },
{ "type": "Feature", "properties": { "line": "A-C", "name": "Rockaway Ave", "notes": "A-nights, C-all other times", "objectid": 117.0, "url": "http:\/\/web.mta.info\/nyct\/service\/" }, "geometry": { "type": "Point", "coordinates": [ -73.911945997266173, 40.678339999883505 ] } },
{ "type": "Feature", "properties": { "line": "G", "name": "Fulton St", "notes": "G-all times", "objectid": 118.0, "url": "http:\/\/web.mta.info\/nyct\/service\/" }, "geometry": { "type": "Point", "coordinates": [ -73.975374998331489, 40.68711899950771 ] } },
{ "type": "Feature", "properties": { "line": "G", "name": "Clinton - Washington Aves", "notes": "G-all times", "objectid": 119.0, "url": "http:\/\/web.mta.info\/nyct\/service\/" }, "geometry": { "type": "Point", "coordinates": [ -73.966795998669497, 40.688094001060549 ] } },
{ "type": "Feature", "properties": { "line": "B-Q", "name": "7th Ave", "notes": "B-weekdays and evenings, Q-all times", "objectid": 120.0, "url": "http:\/\/web.mta.info\/nyct\/service\/" }, "geometry": { "type": "Point", "coordinates": [ -73.972852791910242, 40.677102179832943 ] } },
{ "type": "Feature", "properties": { "line": "B-Q", "name": "Atlantic Av - Barclay's Center", "notes": "B-weekdays and evenings, Q-all times", "objectid": 121.0, "url": "http:\/\/web.mta.info\/nyct\/service\/" }, "geometry": { "type": "Point", "coordinates": [ -73.976783439631674, 40.684488323453685 ] } },
{ "type": "Feature", "properties": { "line": "D-N-Q-R", "name": "Atlantic Av - Barclay's Center", "notes": "D,N-all times, R-all times exc nights", "objectid": 122.0, "url": "http:\/\/web.mta.info\/nyct\/service\/" }, "geometry": { "type": "Point", "coordinates": [ -73.978809999567673, 40.683665667279435 ] } },
{ "type": "Feature", "properties": { "line": "4-5", "name": "Borough Hall", "notes": "4-all times, 5-weekdays", "objectid": 123.0, "url": "http:\/\/web.mta.info\/nyct\/service\/" }, "geometry": { "type": "Point", "coordinates": [ -73.990151000905385, 40.692403999991036 ] } },
{ "type": "Feature", "properties": { "line": "A", "name": "Aqueduct Racetrack", "notes": "A-to Manhattan only, racing days only", "objectid": 124.0, "url": "http:\/\/web.mta.info\/nyct\/service\/" }, "geometry": { "type": "Point", "coordinates": [ -73.835918999651625, 40.672096999172844 ] } },
{ "type": "Feature", "properties": { "line": "5", "name": "Morris Park", "notes": "5-all times", "objectid": 125.0, "url": "http:\/\/web.mta.info\/nyct\/service\/" }, "geometry": { "type": "Point", "coordinates": [ -73.860495001172538, 40.854363999664258 ] } },
{ "type": "Feature", "properties": { "line": "5", "name": "Pelham Pkwy", "notes": "5-all times", "objectid": 126.0, "url": "http:\/\/web.mta.info\/nyct\/service\/" }, "geometry": { "type": "Point", "coordinates": [ -73.855359000435641, 40.858984999820116 ] } },
{ "type": "Feature", "properties": { "line": "A-C", "name": "Nostrand Ave", "notes": "A-all times, C-all times exc nights", "objectid": 127.0, "url": "http:\/\/web.mta.info\/nyct\/service\/" }, "geometry": { "type": "Point", "coordinates": [ -73.950426000996828, 40.68043800006226 ] } },
{ "type": "Feature", "properties": { "line": "2-3-4-5", "name": "Nevins St", "notes": "2,4-all times, 3-all times exc nights, 5-weekdays", "objectid": 128.0, "url": "http:\/\/web.mta.info\/nyct\/service\/" }, "geometry": { "type": "Point", "coordinates": [ -73.980406798745776, 40.688310580190219 ] } },
{ "type": "Feature", "properties": { "line": "2-3-4", "name": "Eastern Pkwy - Bklyn Museum", "notes": "4-nights, 3-all other times, 2-all times", "objectid": 129.0, "url": "http:\/\/web.mta.info\/nyct\/service\/" }, "geometry": { "type": "Point", "coordinates": [ -73.964222037484248, 40.672032235459248 ] } },
{ "type": "Feature", "properties": { "line": "2-5", "name": "Beverly Rd", "notes": "2-all times, 5-weekdays", "objectid": 130.0, "url": "http:\/\/web.mta.info\/nyct\/service\/" }, "geometry": { "type": "Point", "coordinates": [ -73.948847983817018, 40.645123518943727 ] } },
{ "type": "Feature", "properties": { "line": "2-5", "name": "Church Ave", "notes": "2-all times, 5-weekdays", "objectid": 131.0, "url": "http:\/\/web.mta.info\/nyct\/service\/" }, "geometry": { "type": "Point", "coordinates": [ -73.949455140353336, 40.650860687802201 ] } },
{ "type": "Feature", "properties": { "line": "2-5", "name": "Newkirk Ave", "notes": "2-all times, 5-weekdays", "objectid": 132.0, "url": "http:\/\/web.mta.info\/nyct\/service\/" }, "geometry": { "type": "Point", "coordinates": [ -73.948299908224072, 40.639991242753112 ] } },
{ "type": "Feature", "properties": { "line": "2-5", "name": "Brooklyn College - Flatbush Ave", "notes": "2-all times, 5-weekdays", "objectid": 133.0, "url": "http:\/\/web.mta.info\/nyct\/service\/" }, "geometry": { "type": "Point", "coordinates": [ -73.947541207344059, 40.632842407007423 ] } },
{ "type": "Feature", "properties": { "line": "2-5", "name": "Sterling St", "notes": "2-all times, 5-weekdays", "objectid": 134.0, "url": "http:\/\/web.mta.info\/nyct\/service\/" }, "geometry": { "type": "Point", "coordinates": [ -73.950728911249371, 40.662772993428298 ] } },
{ "type": "Feature", "properties": { "line": "3-4", "name": "Crown Hts - Utica Ave", "notes": "3-all times exc nights, 4-all times", "objectid": 135.0, "url": "http:\/\/web.mta.info\/nyct\/service\/" }, "geometry": { "type": "Point", "coordinates": [ -73.932932560818514, 40.668978311078092 ] } },
{ "type": "Feature", "properties": { "line": "3-4", "name": "Kingston Ave", "notes": "4-nights, 3-all other times", "objectid": 136.0, "url": "http:\/\/web.mta.info\/nyct\/service\/" }, "geometry": { "type": "Point", "coordinates": [ -73.942159783929625, 40.669481448649783 ] } },
{ "type": "Feature", "properties": { "line": "G", "name": "Nassau Ave", "notes": "G-all times", "objectid": 137.0, "url": "http:\/\/web.mta.info\/nyct\/service\/" }, "geometry": { "type": "Point", "coordinates": [ -73.95118300016523, 40.724479997808274 ] } },
{ "type": "Feature", "properties": { "line": "G", "name": "Greenpoint Ave", "notes": "G-all times", "objectid": 138.0, "url": "http:\/\/web.mta.info\/nyct\/service\/" }, "geometry": { "type": "Point", "coordinates": [ -73.954425001462354, 40.731266999714649 ] } },
{ "type": "Feature", "properties": { "line": "J-M-Z", "name": "Marcy Ave", "notes": "J-all times, M-all times exc nights, Z-rush hours AM westbound, PM eastbound", "objectid": 139.0, "url": "http:\/\/web.mta.info\/nyct\/service\/" }, "geometry": { "type": "Point", "coordinates": [ -73.957832000757293, 40.708383000017925 ] } },
{ "type": "Feature", "properties": { "line": "J-M", "name": "Hewes St", "notes": "J-all times, skips weekdays AM westbound, PM eastbound, M-all times exc nights", "objectid": 140.0, "url": "http:\/\/web.mta.info\/nyct\/service\/" }, "geometry": { "type": "Point", "coordinates": [ -73.953488000384567, 40.706889998054002 ] } },
{ "type": "Feature", "properties": { "line": "4-5", "name": "138th St - Grand Concourse", "notes": "4-all times, skips rush hours AM southbound, PM northbound, 5-all times exc nights", "objectid": 141.0, "url": "http:\/\/web.mta.info\/nyct\/service\/" }, "geometry": { "type": "Point", "coordinates": [ -73.929848999356111, 40.813223999589077 ] } },
{ "type": "Feature", "properties": { "line": "E-M", "name": "5th Ave - 53rd St", "notes": "E-all times, M-weekdays and evenings", "objectid": 142.0, "url": "http:\/\/web.mta.info\/nyct\/service\/" }, "geometry": { "type": "Point", "coordinates": [ -73.975248505273399, 40.760086832313263 ] } },
{ "type": "Feature", "properties": { "line": "E-M", "name": "Lexington Ave - 53rd St", "notes": "E-all times, M-weekdays and evenings", "objectid": 143.0, "url": "http:\/\/web.mta.info\/nyct\/service\/" }, "geometry": { "type": "Point", "coordinates": [ -73.969072374902041, 40.757468307828653 ] } },
{ "type": "Feature", "properties": { "line": "N-Q-R-W", "name": "28th St", "notes": "N-all times, R-all times exc nights, part time", "objectid": 144.0, "url": "http:\/\/web.mta.info\/nyct\/service\/" }, "geometry": { "type": "Point", "coordinates": [ -73.988698001287375, 40.745453999799508 ] } },
{ "type": "Feature", "properties": { "line": "N-Q-R-W", "name": "Herald Sq - 34th St", "notes": "N,Q-all times, R-all times exc nights", "objectid": 145.0, "url": "http:\/\/web.mta.info\/nyct\/service\/" }, "geometry": { "type": "Point", "coordinates": [ -73.987936833826396, 40.749644560094417 ] } },
{ "type": "Feature", "properties": { "line": "L", "name": "1st Ave", "notes": "L-all times", "objectid": 146.0, "url": "http:\/\/web.mta.info\/nyct\/service\/" }, "geometry": { "type": "Point", "coordinates": [ -73.981680874891282, 40.730974975800663 ] } },
{ "type": "Feature", "properties": { "line": "S", "name": "Times Sq - 42nd St", "notes": "S to Grand Central-all times exc nights, closed nights-use 7", "objectid": 147.0, "url": "http:\/\/web.mta.info\/nyct\/service\/" }, "geometry": { "type": "Point", "coordinates": [ -73.986228999532017, 40.755983000570076 ] } },
{ "type": "Feature", "properties": { "line": "G", "name": "Metropolitan Ave", "notes": "G-all times", "objectid": 148.0, "url": "http:\/\/web.mta.info\/nyct\/service\/" }, "geometry": { "type": "Point", "coordinates": [ -73.951423999452501, 40.712774000734257 ] } },
{ "type": "Feature", "properties": { "line": "L", "name": "Grand St", "notes": "L-all times", "objectid": 149.0, "url": "http:\/\/web.mta.info\/nyct\/service\/" }, "geometry": { "type": "Point", "coordinates": [ -73.94049699874644, 40.711576000648229 ] } },
{ "type": "Feature", "properties": { "line": "L", "name": "Graham Ave", "notes": "L-all times", "objectid": 150.0, "url": "http:\/\/web.mta.info\/nyct\/service\/" }, "geometry": { "type": "Point", "coordinates": [ -73.943943998690372, 40.714575998363635 ] } },
{ "type": "Feature", "properties": { "line": "L", "name": "Bedford Ave", "notes": "L-all times", "objectid": 151.0, "url": "http:\/\/web.mta.info\/nyct\/service\/" }, "geometry": { "type": "Point", "coordinates": [ -73.95666499806525, 40.71717399858899 ] } },
{ "type": "Feature", "properties": { "line": "L", "name": "Montrose Ave", "notes": "L-all times", "objectid": 152.0, "url": "http:\/\/web.mta.info\/nyct\/service\/" }, "geometry": { "type": "Point", "coordinates": [ -73.939792847135053, 40.707391064384552 ] } },
{ "type": "Feature", "properties": { "line": "G", "name": "Long Island City - Court Sq", "notes": "G-all times", "objectid": 153.0, "url": "http:\/\/web.mta.info\/nyct\/service\/" }, "geometry": { "type": "Point", "coordinates": [ -73.94381559597835, 40.746305033571453 ] } },
{ "type": "Feature", "properties": { "line": "G", "name": "21st St", "notes": "G-all times", "objectid": 154.0, "url": "http:\/\/web.mta.info\/nyct\/service\/" }, "geometry": { "type": "Point", "coordinates": [ -73.949599999755193, 40.744128666495399 ] } },
{ "type": "Feature", "properties": { "line": "N-W", "name": "39th Ave", "notes": "N-all times, W part time", "objectid": 155.0, "url": "http:\/\/web.mta.info\/nyct\/service\/" }, "geometry": { "type": "Point", "coordinates": [ -73.932851376795981, 40.752763061408452 ] } },
{ "type": "Feature", "properties": { "line": "1", "name": "145th St", "notes": "1-all times", "objectid": 156.0, "url": "http:\/\/web.mta.info\/nyct\/service\/" }, "geometry": { "type": "Point", "coordinates": [ -73.950359998797126, 40.826550999621936 ] } },
{ "type": "Feature", "properties": { "line": "1", "name": "157th St", "notes": "1-all times", "objectid": 157.0, "url": "http:\/\/web.mta.info\/nyct\/service\/" }, "geometry": { "type": "Point", "coordinates": [ -73.944889999010471, 40.834041000139898 ] } },
{ "type": "Feature", "properties": { "line": "1-2-3", "name": "96th St", "notes": "1,2,3-all times", "objectid": 158.0, "url": "http:\/\/web.mta.info\/nyct\/service\/" }, "geometry": { "type": "Point", "coordinates": [ -73.972322999156958, 40.793919001214711 ] } },
{ "type": "Feature", "properties": { "line": "1", "name": "103rd St", "notes": "1-all times", "objectid": 159.0, "url": "http:\/\/web.mta.info\/nyct\/service\/" }, "geometry": { "type": "Point", "coordinates": [ -73.968378999608177, 40.799446000334825 ] } },
{ "type": "Feature", "properties": { "line": "2-3", "name": "Central Park North (110th St)", "notes": "2,3-all times", "objectid": 160.0, "url": "http:\/\/web.mta.info\/nyct\/service\/" }, "geometry": { "type": "Point", "coordinates": [ -73.951822001769131, 40.799074999773239 ] } },
{ "type": "Feature", "properties": { "line": "A-B-C", "name": "103rd St", "notes": "A-nights, B-weekdays and evenings, C-all times exc nights", "objectid": 161.0, "url": "http:\/\/web.mta.info\/nyct\/service\/" }, "geometry": { "type": "Point", "coordinates": [ -73.961370082676169, 40.796060739904526 ] } },
{ "type": "Feature", "properties": { "line": "1-2-3", "name": "72nd St", "notes": "1,2,3-all times", "objectid": 162.0, "url": "http:\/\/web.mta.info\/nyct\/service\/" }, "geometry": { "type": "Point", "coordinates": [ -73.981970001595826, 40.778453000686142 ] } },
{ "type": "Feature", "properties": { "line": "A-B-C", "name": "81st St", "notes": "A-nights, B-weekdays and evenings, C-all times exc nights", "objectid": 163.0, "url": "http:\/\/web.mta.info\/nyct\/service\/" }, "geometry": { "type": "Point", "coordinates": [ -73.972097949372085, 40.781346084182061 ] } },
{ "type": "Feature", "properties": { "line": "E-F", "name": "75th Ave", "notes": "E-evenings, weekends, nights, F-all times", "objectid": 164.0, "url": "http:\/\/web.mta.info\/nyct\/service\/" }, "geometry": { "type": "Point", "coordinates": [ -73.836923693871583, 40.718044653487432 ] } },
{ "type": "Feature", "properties": { "line": "A-B-C", "name": "86th St", "notes": "A-nights, B-weekdays and evenings, C-all times exc nights", "objectid": 165.0, "url": "http:\/\/web.mta.info\/nyct\/service\/" }, "geometry": { "type": "Point", "coordinates": [ -73.968828494296716, 40.785823046785573 ] } },
{ "type": "Feature", "properties": { "line": "1", "name": "Cathedral Pkwy (110th St)", "notes": "1-all times", "objectid": 166.0, "url": "http:\/\/web.mta.info\/nyct\/service\/" }, "geometry": { "type": "Point", "coordinates": [ -73.966847000545599, 40.803966999614843 ] } },
{ "type": "Feature", "properties": { "line": "1", "name": "116th St - Columbia University", "notes": "1-all times", "objectid": 167.0, "url": "http:\/\/web.mta.info\/nyct\/service\/" }, "geometry": { "type": "Point", "coordinates": [ -73.964109997577509, 40.807722001230864 ] } },
{ "type": "Feature", "properties": { "line": "2-3", "name": "125th St", "notes": "2,3-all times", "objectid": 168.0, "url": "http:\/\/web.mta.info\/nyct\/service\/" }, "geometry": { "type": "Point", "coordinates": [ -73.945495000114107, 40.807753999182815 ] } },
{ "type": "Feature", "properties": { "line": "2-3", "name": "135th St", "notes": "2,3-all times", "objectid": 169.0, "url": "http:\/\/web.mta.info\/nyct\/service\/" }, "geometry": { "type": "Point", "coordinates": [ -73.940770001067079, 40.814229000339097 ] } },
{ "type": "Feature", "properties": { "line": "2-3", "name": "116th St", "notes": "2,3-all times", "objectid": 170.0, "url": "http:\/\/web.mta.info\/nyct\/service\/" }, "geometry": { "type": "Point", "coordinates": [ -73.94962500096905, 40.802097999133004 ] } },
{ "type": "Feature", "properties": { "line": "B-D", "name": "Tremont Ave", "notes": "B-rush hours, D-all times", "objectid": 171.0, "url": "http:\/\/web.mta.info\/nyct\/service\/" }, "geometry": { "type": "Point", "coordinates": [ -73.905227001223537, 40.850409999510234 ] } },
{ "type": "Feature", "properties": { "line": "1", "name": "137th St - City College", "notes": "1-all times", "objectid": 172.0, "url": "http:\/\/web.mta.info\/nyct\/service\/" }, "geometry": { "type": "Point", "coordinates": [ -73.95367600087873, 40.82200799968475 ] } },
{ "type": "Feature", "properties": { "line": "3", "name": "145th St", "notes": "3-all times, exit only northbound", "objectid": 173.0, "url": "http:\/\/web.mta.info\/nyct\/service\/" }, "geometry": { "type": "Point", "coordinates": [ -73.936244998732988, 40.820420999692793 ] } },
{ "type": "Feature", "properties": { "line": "4", "name": "176th St", "notes": "4-all times", "objectid": 174.0, "url": "http:\/\/web.mta.info\/nyct\/service\/" }, "geometry": { "type": "Point", "coordinates": [ -73.911793998844715, 40.848480001236901 ] } },
{ "type": "Feature", "properties": { "line": "4", "name": "Burnside Ave", "notes": "4-all times", "objectid": 175.0, "url": "http:\/\/web.mta.info\/nyct\/service\/" }, "geometry": { "type": "Point", "coordinates": [ -73.907684001599705, 40.853453001556929 ] } },
{ "type": "Feature", "properties": { "line": "B-D", "name": "170th St", "notes": "B-rush hours, D-all times, skips rush hours AM southbound, PM northbound", "objectid": 176.0, "url": "http:\/\/web.mta.info\/nyct\/service\/" }, "geometry": { "type": "Point", "coordinates": [ -73.913399998469828, 40.83930599964156 ] } },
{ "type": "Feature", "properties": { "line": "1", "name": "168th St", "notes": "1-all times", "objectid": 177.0, "url": "http:\/\/web.mta.info\/nyct\/service\/" }, "geometry": { "type": "Point", "coordinates": [ -73.940132999072574, 40.840555999148535 ] } },
{ "type": "Feature", "properties": { "line": "1", "name": "181st St", "notes": "1-all times", "objectid": 178.0, "url": "http:\/\/web.mta.info\/nyct\/service\/" }, "geometry": { "type": "Point", "coordinates": [ -73.9335959996056, 40.849504999740653 ] } },
{ "type": "Feature", "properties": { "line": "1", "name": "191st St", "notes": "1-all times", "objectid": 179.0, "url": "http:\/\/web.mta.info\/nyct\/service\/" }, "geometry": { "type": "Point", "coordinates": [ -73.929411997420388, 40.855225001758363 ] } },
{ "type": "Feature", "properties": { "line": "A", "name": "175th St", "notes": "A-all times", "objectid": 180.0, "url": "http:\/\/web.mta.info\/nyct\/service\/" }, "geometry": { "type": "Point", "coordinates": [ -73.939703997615965, 40.847391000724031 ] } },
{ "type": "Feature", "properties": { "line": "A", "name": "Beach 44th St", "notes": "A-all times", "objectid": 181.0, "url": "http:\/\/web.mta.info\/nyct\/service\/" }, "geometry": { "type": "Point", "coordinates": [ -73.776012999995075, 40.592942999086169 ] } },
{ "type": "Feature", "properties": { "line": "A", "name": "Beach 60th St", "notes": "A-all times", "objectid": 182.0, "url": "http:\/\/web.mta.info\/nyct\/service\/" }, "geometry": { "type": "Point", "coordinates": [ -73.788521998011802, 40.592374001212349 ] } },
{ "type": "Feature", "properties": { "line": "A-S", "name": "Beach 98th St", "notes": "A-rush hours AM northbound, PM southbound, S Broad Channel to Rockaway Park-all times", "objectid": 183.0, "url": "http:\/\/web.mta.info\/nyct\/service\/" }, "geometry": { "type": "Point", "coordinates": [ -73.820520589595233, 40.585385691332789 ] } },
{ "type": "Feature", "properties": { "line": "A-S", "name": "Rockaway Park - Beach 116 St", "notes": "A-rush hours AM northbound, PM southbound, S to Broad Channel-all times", "objectid": 184.0, "url": "http:\/\/web.mta.info\/nyct\/service\/" }, "geometry": { "type": "Point", "coordinates": [ -73.835590087012392, 40.580955865573515 ] } },
{ "type": "Feature", "properties": { "line": "A", "name": "Beach 36th St", "notes": "A-all times", "objectid": 185.0, "url": "http:\/\/web.mta.info\/nyct\/service\/" }, "geometry": { "type": "Point", "coordinates": [ -73.768174999396877, 40.595398001668762 ] } },
{ "type": "Feature", "properties": { "line": "A", "name": "Beach 25th St", "notes": "A-all times", "objectid": 186.0, "url": "http:\/\/web.mta.info\/nyct\/service\/" }, "geometry": { "type": "Point", "coordinates": [ -73.761352997620733, 40.600066001058813 ] } },
{ "type": "Feature", "properties": { "line": "F", "name": "Parsons Blvd", "notes": "F-all times", "objectid": 187.0, "url": "http:\/\/web.mta.info\/nyct\/service\/" }, "geometry": { "type": "Point", "coordinates": [ -73.803289000218854, 40.707571999615695 ] } },
{ "type": "Feature", "properties": { "line": "F", "name": "169th St", "notes": "F-all times", "objectid": 188.0, "url": "http:\/\/web.mta.info\/nyct\/service\/" }, "geometry": { "type": "Point", "coordinates": [ -73.793474199277213, 40.710517502784 ] } },
{ "type": "Feature", "properties": { "line": "7", "name": "103rd St - Corona Plaza", "notes": "7-all times", "objectid": 189.0, "url": "http:\/\/web.mta.info\/nyct\/service\/" }, "geometry": { "type": "Point", "coordinates": [ -73.862699998304123, 40.749865000555545 ] } },
{ "type": "Feature", "properties": { "line": "7", "name": "111th St", "notes": "7-all times", "objectid": 190.0, "url": "http:\/\/web.mta.info\/nyct\/service\/" }, "geometry": { "type": "Point", "coordinates": [ -73.85533399834884, 40.751729999417108 ] } },
{ "type": "Feature", "properties": { "line": "E-M-R", "name": "63rd Dr - Rego Park", "notes": "E-nights, R-all other times, M-weekdays and evenings", "objectid": 191.0, "url": "http:\/\/web.mta.info\/nyct\/service\/" }, "geometry": { "type": "Point", "coordinates": [ -73.861618200972032, 40.729763972422425 ] } },
{ "type": "Feature", "properties": { "line": "A-S", "name": "Grant Ave", "notes": "A-all times, S Euclid Av to Ozone Park-Lefferts Blvd-nights", "objectid": 192.0, "url": "http:\/\/web.mta.info\/nyct\/service\/" }, "geometry": { "type": "Point", "coordinates": [ -73.865049998777025, 40.677044000544782 ] } },
{ "type": "Feature", "properties": { "line": "1-2", "name": "79th St", "notes": "1-all times, 2-nights", "objectid": 193.0, "url": "http:\/\/web.mta.info\/nyct\/service\/" }, "geometry": { "type": "Point", "coordinates": [ -73.979917000561343, 40.783933999590317 ] } },
{ "type": "Feature", "properties": { "line": "L", "name": "Atlantic Ave", "notes": "L-all times", "objectid": 194.0, "url": "http:\/\/web.mta.info\/nyct\/service\/" }, "geometry": { "type": "Point", "coordinates": [ -73.903096999540097, 40.675344666408051 ] } },
{ "type": "Feature", "properties": { "line": "1-2", "name": "Christopher St - Sheridan Sq", "notes": "1-all times, 2-nights", "objectid": 195.0, "url": "http:\/\/web.mta.info\/nyct\/service\/" }, "geometry": { "type": "Point", "coordinates": [ -74.00290599855235, 40.73342200104225 ] } },
{ "type": "Feature", "properties": { "line": "A-S", "name": "Ozone Park - Lefferts Blvd", "notes": "S to Euclid Av-nights, A-all other times", "objectid": 196.0, "url": "http:\/\/web.mta.info\/nyct\/service\/" }, "geometry": { "type": "Point", "coordinates": [ -73.825797999066125, 40.685950998783611 ] } },
{ "type": "Feature", "properties": { "line": "7-7 Express", "name": "Times Sq - 42nd St", "notes": "7-all times, 7 Express-rush hours AM westbound, PM eastbound", "objectid": 197.0, "url": "http:\/\/web.mta.info\/nyct\/service\/" }, "geometry": { "type": "Point", "coordinates": [ -73.987690998251523, 40.755477001982506 ] } },
{ "type": "Feature", "properties": { "line": "F-Q", "name": "W 8th St - NY Aquarium", "notes": "F,Q-all times", "objectid": 198.0, "url": "http:\/\/web.mta.info\/nyct\/service\/" }, "geometry": { "type": "Point", "coordinates": [ -73.975957874138217, 40.576033818103646 ] } },
{ "type": "Feature", "properties": { "line": "1-2", "name": "28th St", "notes": "1-all times, 2-nights", "objectid": 199.0, "url": "http:\/\/web.mta.info\/nyct\/service\/" }, "geometry": { "type": "Point", "coordinates": [ -73.993365001343236, 40.747214999182191 ] } },
{ "type": "Feature", "properties": { "line": "4-6-6 Express", "name": "28th St", "notes": "4 nights, 6-all times, 6 Express-weekdays AM southbound, PM northbound", "objectid": 200.0, "url": "http:\/\/web.mta.info\/nyct\/service\/" }, "geometry": { "type": "Point", "coordinates": [ -73.984264001104066, 40.743069999259035 ] } },
{ "type": "Feature", "properties": { "line": "6-6 Express", "name": "Pelham Bay Park", "notes": "6 Express-weekdays AM southbound, PM northbound, 6-all other times", "objectid": 201.0, "url": "http:\/\/web.mta.info\/nyct\/service\/" }, "geometry": { "type": "Point", "coordinates": [ -73.828121000592887, 40.85246199951662 ] } },
{ "type": "Feature", "properties": { "line": "6-6 Express", "name": "Westchester Sq - E Tremont Ave", "notes": "6 Express-weekdays AM southbound, PM northbound, 6-all other times", "objectid": 202.0, "url": "http:\/\/web.mta.info\/nyct\/service\/" }, "geometry": { "type": "Point", "coordinates": [ -73.842951999250118, 40.839892001013915 ] } },
{ "type": "Feature", "properties": { "line": "1-2", "name": "18th St", "notes": "1-all times, 2-nights", "objectid": 203.0, "url": "http:\/\/web.mta.info\/nyct\/service\/" }, "geometry": { "type": "Point", "coordinates": [ -73.997871000604064, 40.741039999802105 ] } },
{ "type": "Feature", "properties": { "line": "7-7 Express", "name": "Grand Central - 42nd St", "notes": "7-all times, 7 Express-rush hours AM westbound, PM eastbound", "objectid": 204.0, "url": "http:\/\/web.mta.info\/nyct\/service\/" }, "geometry": { "type": "Point", "coordinates": [ -73.976041001115078, 40.751431000286864 ] } },
{ "type": "Feature", "properties": { "line": "A", "name": "Beach 67th St", "notes": "A-all times", "objectid": 205.0, "url": "http:\/\/web.mta.info\/nyct\/service\/" }, "geometry": { "type": "Point", "coordinates": [ -73.796923999842093, 40.590927000781328 ] } },
{ "type": "Feature", "properties": { "line": "A-C-E", "name": "W 4th St - Washington Sq (Upper)", "notes": "A,E-all times, C-all times exc nights", "objectid": 206.0, "url": "http:\/\/web.mta.info\/nyct\/service\/" }, "geometry": { "type": "Point", "coordinates": [ -74.000495002254354, 40.732337997743251 ] } },
{ "type": "Feature", "properties": { "line": "J", "name": "85th St - Forest Pky", "notes": "J-all times", "objectid": 207.0, "url": "http:\/\/web.mta.info\/nyct\/service\/" }, "geometry": { "type": "Point", "coordinates": [ -73.860087000068745, 40.692426999661031 ] } },
{ "type": "Feature", "properties": { "line": "J-Z", "name": "Woodhaven Blvd", "notes": "J-all times, Z-rush hours AM westbound, PM eastbound", "objectid": 208.0, "url": "http:\/\/web.mta.info\/nyct\/service\/" }, "geometry": { "type": "Point", "coordinates": [ -73.852051997407941, 40.693703998801048 ] } },
{ "type": "Feature", "properties": { "line": "J", "name": "111th St", "notes": "J-all times", "objectid": 209.0, "url": "http:\/\/web.mta.info\/nyct\/service\/" }, "geometry": { "type": "Point", "coordinates": [ -73.836793384546965, 40.697114810696476 ] } },
{ "type": "Feature", "properties": { "line": "J-Z", "name": "121st St", "notes": "Z-rush hours AM westbound, PM eastbound, J-all other times", "objectid": 210.0, "url": "http:\/\/web.mta.info\/nyct\/service\/" }, "geometry": { "type": "Point", "coordinates": [ -73.828349000179543, 40.700481998515315 ] } },
{ "type": "Feature", "properties": { "line": "L", "name": "Halsey St", "notes": "L-all times", "objectid": 211.0, "url": "http:\/\/web.mta.info\/nyct\/service\/" }, "geometry": { "type": "Point", "coordinates": [ -73.903934001186315, 40.695518001148777 ] } },
{ "type": "Feature", "properties": { "line": "L", "name": "Myrtle - Wyckoff Aves", "notes": "L-all times", "objectid": 212.0, "url": "http:\/\/web.mta.info\/nyct\/service\/" }, "geometry": { "type": "Point", "coordinates": [ -73.910975718264694, 40.699471062427136 ] } },
{ "type": "Feature", "properties": { "line": "3-4", "name": "New Lots Ave", "notes": "4-nights, 3-all other times", "objectid": 213.0, "url": "http:\/\/web.mta.info\/nyct\/service\/" }, "geometry": { "type": "Point", "coordinates": [ -73.884110708003291, 40.666314932596897 ] } },
{ "type": "Feature", "properties": { "line": "A-C", "name": "Van Siclen Ave", "notes": "A-nights, C-all other times", "objectid": 214.0, "url": "http:\/\/web.mta.info\/nyct\/service\/" }, "geometry": { "type": "Point", "coordinates": [ -73.890358000247105, 40.672709999061041 ] } },
{ "type": "Feature", "properties": { "line": "J", "name": "Cleveland St", "notes": "J-all times", "objectid": 215.0, "url": "http:\/\/web.mta.info\/nyct\/service\/" }, "geometry": { "type": "Point", "coordinates": [ -73.885194002164297, 40.679777998961164 ] } },
{ "type": "Feature", "properties": { "line": "L", "name": "Livonia Ave", "notes": "L-all times", "objectid": 216.0, "url": "http:\/\/web.mta.info\/nyct\/service\/" }, "geometry": { "type": "Point", "coordinates": [ -73.900562372260566, 40.664057270946437 ] } },
{ "type": "Feature", "properties": { "line": "3-4", "name": "Junius St", "notes": "4-nights, 3-all other times", "objectid": 217.0, "url": "http:\/\/web.mta.info\/nyct\/service\/" }, "geometry": { "type": "Point", "coordinates": [ -73.902448641835619, 40.663589001817243 ] } },
{ "type": "Feature", "properties": { "line": "3-4", "name": "Rockaway Ave", "notes": "4-nights, 3-all other times", "objectid": 218.0, "url": "http:\/\/web.mta.info\/nyct\/service\/" }, "geometry": { "type": "Point", "coordinates": [ -73.908958335844488, 40.662617488152229 ] } },
{ "type": "Feature", "properties": { "line": "L", "name": "Canarsie - Rockaway Pkwy", "notes": "L-all times", "objectid": 219.0, "url": "http:\/\/web.mta.info\/nyct\/service\/" }, "geometry": { "type": "Point", "coordinates": [ -73.901850000172871, 40.646653667395277 ] } },
{ "type": "Feature", "properties": { "line": "L", "name": "E 105th St", "notes": "L-all times", "objectid": 220.0, "url": "http:\/\/web.mta.info\/nyct\/service\/" }, "geometry": { "type": "Point", "coordinates": [ -73.899547693887243, 40.650468785446989 ] } },
{ "type": "Feature", "properties": { "line": "3-4", "name": "Saratoga Ave", "notes": "4-nights, 3-all other times", "objectid": 221.0, "url": "http:\/\/web.mta.info\/nyct\/service\/" }, "geometry": { "type": "Point", "coordinates": [ -73.916330250079469, 40.661529789807503 ] } },
{ "type": "Feature", "properties": { "line": "3-4", "name": "Sutter Ave - Rutland Road", "notes": "4-nights, 3-all other times", "objectid": 222.0, "url": "http:\/\/web.mta.info\/nyct\/service\/" }, "geometry": { "type": "Point", "coordinates": [ -73.922521185360011, 40.664766788774926 ] } },
{ "type": "Feature", "properties": { "line": "L", "name": "New Lots Ave", "notes": "L-all times", "objectid": 223.0, "url": "http:\/\/web.mta.info\/nyct\/service\/" }, "geometry": { "type": "Point", "coordinates": [ -73.899277960571425, 40.658914773685268 ] } },
{ "type": "Feature", "properties": { "line": "J-Z", "name": "Broadway Junction", "notes": "J-all times, Z-rush hours AM westbound, PM eastbound", "objectid": 224.0, "url": "http:\/\/web.mta.info\/nyct\/service\/" }, "geometry": { "type": "Point", "coordinates": [ -73.904289997464119, 40.679366001473689 ] } },
{ "type": "Feature", "properties": { "line": "J", "name": "Alabama Ave", "notes": "J-all times", "objectid": 225.0, "url": "http:\/\/web.mta.info\/nyct\/service\/" }, "geometry": { "type": "Point", "coordinates": [ -73.898526001596522, 40.676998000003756 ] } },
{ "type": "Feature", "properties": { "line": "A-C", "name": "Shepherd Ave", "notes": "A-nights, C-all other times", "objectid": 226.0, "url": "http:\/\/web.mta.info\/nyct\/service\/" }, "geometry": { "type": "Point", "coordinates": [ -73.880749997472691, 40.6741300014559 ] } },
{ "type": "Feature", "properties": { "line": "J-Z", "name": "Crescent St", "notes": "J-all times, Z-rush hours AM westbound, PM eastbound", "objectid": 227.0, "url": "http:\/\/web.mta.info\/nyct\/service\/" }, "geometry": { "type": "Point", "coordinates": [ -73.87392925215778, 40.683152657077358 ] } },
{ "type": "Feature", "properties": { "line": "J", "name": "Cypress Hills", "notes": "J-all times", "objectid": 228.0, "url": "http:\/\/web.mta.info\/nyct\/service\/" }, "geometry": { "type": "Point", "coordinates": [ -73.873321998829951, 40.689616000838754 ] } },
{ "type": "Feature", "properties": { "line": "J-Z", "name": "75th St - Eldert Ln", "notes": "Z-rush hours AM westbound, PM eastbound, J-all other times", "objectid": 229.0, "url": "http:\/\/web.mta.info\/nyct\/service\/" }, "geometry": { "type": "Point", "coordinates": [ -73.86728799944963, 40.691290001246735 ] } },
{ "type": "Feature", "properties": { "line": "7", "name": "69th St", "notes": "7-all times", "objectid": 230.0, "url": "http:\/\/web.mta.info\/nyct\/service\/" }, "geometry": { "type": "Point", "coordinates": [ -73.896402999318497, 40.746324999410284 ] } },
{ "type": "Feature", "properties": { "line": "7", "name": "74th St - Broadway", "notes": "7-all times", "objectid": 231.0, "url": "http:\/\/web.mta.info\/nyct\/service\/" }, "geometry": { "type": "Point", "coordinates": [ -73.891205128991103, 40.746867573829114 ] } },
{ "type": "Feature", "properties": { "line": "E-M-R", "name": "Woodhaven Blvd - Queens Mall", "notes": "E-nights, R-all other times, M-weekdays and evenings", "objectid": 232.0, "url": "http:\/\/web.mta.info\/nyct\/service\/" }, "geometry": { "type": "Point", "coordinates": [ -73.869432086123481, 40.73309737380972 ] } },
{ "type": "Feature", "properties": { "line": "M", "name": "Myrtle - Wyckoff Aves", "notes": "M-all times", "objectid": 233.0, "url": "http:\/\/web.mta.info\/nyct\/service\/" }, "geometry": { "type": "Point", "coordinates": [ -73.912178999396019, 40.699454000908368 ] } },
{ "type": "Feature", "properties": { "line": "M", "name": "Seneca Ave", "notes": "M-all times", "objectid": 234.0, "url": "http:\/\/web.mta.info\/nyct\/service\/" }, "geometry": { "type": "Point", "coordinates": [ -73.907581998854226, 40.702918998949023 ] } },
{ "type": "Feature", "properties": { "line": "L", "name": "DeKalb Ave", "notes": "L-all times", "objectid": 235.0, "url": "http:\/\/web.mta.info\/nyct\/service\/" }, "geometry": { "type": "Point", "coordinates": [ -73.918232002197229, 40.703692999616443 ] } },
{ "type": "Feature", "properties": { "line": "7", "name": "52nd St", "notes": "7-all times", "objectid": 236.0, "url": "http:\/\/web.mta.info\/nyct\/service\/" }, "geometry": { "type": "Point", "coordinates": [ -73.912548998912541, 40.744149001021576 ] } },
{ "type": "Feature", "properties": { "line": "E-M-R", "name": "46th St", "notes": "E-nights, R-all other times, M-weekdays and evenings", "objectid": 237.0, "url": "http:\/\/web.mta.info\/nyct\/service\/" }, "geometry": { "type": "Point", "coordinates": [ -73.913521749955379, 40.756316952608096 ] } },
{ "type": "Feature", "properties": { "line": "E-M-R", "name": "Northern Blvd", "notes": "E-nights, R-all other times, M-weekdays and evenings", "objectid": 238.0, "url": "http:\/\/web.mta.info\/nyct\/service\/" }, "geometry": { "type": "Point", "coordinates": [ -73.906065080523575, 40.752824829236076 ] } },
{ "type": "Feature", "properties": { "line": "7", "name": "46th St", "notes": "7-all times", "objectid": 239.0, "url": "http:\/\/web.mta.info\/nyct\/service\/" }, "geometry": { "type": "Point", "coordinates": [ -73.918435001039725, 40.743132000603822 ] } },
{ "type": "Feature", "properties": { "line": "7", "name": "82nd St - Jackson Hts", "notes": "7-all times", "objectid": 240.0, "url": "http:\/\/web.mta.info\/nyct\/service\/" }, "geometry": { "type": "Point", "coordinates": [ -73.88369700071884, 40.747658999559135 ] } },
{ "type": "Feature", "properties": { "line": "7", "name": "90th St - Elmhurst Av", "notes": "7-all times", "objectid": 241.0, "url": "http:\/\/web.mta.info\/nyct\/service\/" }, "geometry": { "type": "Point", "coordinates": [ -73.876612999869849, 40.748408000609132 ] } },
{ "type": "Feature", "properties": { "line": "A", "name": "Howard Beach - JFK Airport", "notes": "A-all times", "objectid": 242.0, "url": "http:\/\/web.mta.info\/nyct\/service\/" }, "geometry": { "type": "Point", "coordinates": [ -73.830301000710321, 40.660476000049592 ] } },
{ "type": "Feature", "properties": { "line": "A", "name": "Aqueduct - North Conduit Av", "notes": "A-all times", "objectid": 243.0, "url": "http:\/\/web.mta.info\/nyct\/service\/" }, "geometry": { "type": "Point", "coordinates": [ -73.834057999487229, 40.668234001699815 ] } },
{ "type": "Feature", "properties": { "line": "E-F", "name": "Briarwood - Van Wyck Blvd", "notes": "E-evenings, weekends, nights, F-all times", "objectid": 244.0, "url": "http:\/\/web.mta.info\/nyct\/service\/" }, "geometry": { "type": "Point", "coordinates": [ -73.820692636374432, 40.709161815369463 ] } },
{ "type": "Feature", "properties": { "line": "E-F-M-R", "name": "Forest Hills - 71st Av", "notes": "E,F-all times, M-weekdays and evenings, R-all times exc nights", "objectid": 245.0, "url": "http:\/\/web.mta.info\/nyct\/service\/" }, "geometry": { "type": "Point", "coordinates": [ -73.844516720126691, 40.721594309535867 ] } },
{ "type": "Feature", "properties": { "line": "F", "name": "Sutphin Blvd", "notes": "F-all times", "objectid": 246.0, "url": "http:\/\/web.mta.info\/nyct\/service\/" }, "geometry": { "type": "Point", "coordinates": [ -73.810832998972316, 40.705417999067642 ] } },
{ "type": "Feature", "properties": { "line": "E-J-Z", "name": "Jamaica Ctr - Parsons \/ Archer", "notes": "E,J-all times, Z-rush hours AM westbound, PM eastbound", "objectid": 247.0, "url": "http:\/\/web.mta.info\/nyct\/service\/" }, "geometry": { "type": "Point", "coordinates": [ -73.801096322989238, 40.702067376211879 ] } },
{ "type": "Feature", "properties": { "line": "2-5", "name": "225th St", "notes": "2-all times, 5-rush hours AM southbound, PM northbound", "objectid": 248.0, "url": "http:\/\/web.mta.info\/nyct\/service\/" }, "geometry": { "type": "Point", "coordinates": [ -73.860214617727365, 40.88802825863786 ] } },
{ "type": "Feature", "properties": { "line": "6", "name": "Elder Ave", "notes": "6-all times", "objectid": 249.0, "url": "http:\/\/web.mta.info\/nyct\/service\/" }, "geometry": { "type": "Point", "coordinates": [ -73.879158998747769, 40.82858400108929 ] } },
{ "type": "Feature", "properties": { "line": "6", "name": "Longwood Ave", "notes": "6-all times", "objectid": 250.0, "url": "http:\/\/web.mta.info\/nyct\/service\/" }, "geometry": { "type": "Point", "coordinates": [ -73.896434998974144, 40.816103999972405 ] } },
{ "type": "Feature", "properties": { "line": "N-W", "name": "Astoria Blvd", "notes": "N-all times, W part time", "objectid": 251.0, "url": "http:\/\/web.mta.info\/nyct\/service\/" }, "geometry": { "type": "Point", "coordinates": [ -73.918095001092382, 40.770036999490863 ] } },
{ "type": "Feature", "properties": { "line": "N-W", "name": "Astoria - Ditmars Blvd", "notes": "N-all times, W part time", "objectid": 252.0, "url": "http:\/\/web.mta.info\/nyct\/service\/" }, "geometry": { "type": "Point", "coordinates": [ -73.912034000103105, 40.775035666523664 ] } },
{ "type": "Feature", "properties": { "line": "2-5", "name": "Jackson Ave", "notes": "2-all times, 5-all times exc nights, skips rush hours AM southbound, PM northbound", "objectid": 253.0, "url": "http:\/\/web.mta.info\/nyct\/service\/" }, "geometry": { "type": "Point", "coordinates": [ -73.9077019387083, 40.81643746686396 ] } },
{ "type": "Feature", "properties": { "line": "2-5", "name": "Prospect Ave", "notes": "2-all times, 5-all times exc nights, skips rush hours AM southbound, PM northbound", "objectid": 254.0, "url": "http:\/\/web.mta.info\/nyct\/service\/" }, "geometry": { "type": "Point", "coordinates": [ -73.901777787309172, 40.819487264838443 ] } },
{ "type": "Feature", "properties": { "line": "6", "name": "Cypress Ave", "notes": "6-all times", "objectid": 255.0, "url": "http:\/\/web.mta.info\/nyct\/service\/" }, "geometry": { "type": "Point", "coordinates": [ -73.914041999947528, 40.8053680007636 ] } },
{ "type": "Feature", "properties": { "line": "2-5", "name": "174th St", "notes": "2-all times, 5-all times exc nights, skips rush hours AM southbound, PM northbound", "objectid": 256.0, "url": "http:\/\/web.mta.info\/nyct\/service\/" }, "geometry": { "type": "Point", "coordinates": [ -73.887693598128877, 40.837195550170605 ] } },
{ "type": "Feature", "properties": { "line": "2-5", "name": "Allerton Ave", "notes": "2-all times, 5-rush hours AM southbound, PM northbound", "objectid": 257.0, "url": "http:\/\/web.mta.info\/nyct\/service\/" }, "geometry": { "type": "Point", "coordinates": [ -73.867234228516253, 40.86548337793927 ] } },
{ "type": "Feature", "properties": { "line": "6", "name": "E 143rd St - St Mary's St", "notes": "6-all times", "objectid": 258.0, "url": "http:\/\/web.mta.info\/nyct\/service\/" }, "geometry": { "type": "Point", "coordinates": [ -73.907656999364889, 40.808719000901426 ] } },
{ "type": "Feature", "properties": { "line": "4", "name": "Kingsbridge Rd", "notes": "4-all times", "objectid": 259.0, "url": "http:\/\/web.mta.info\/nyct\/service\/" }, "geometry": { "type": "Point", "coordinates": [ -73.897174001017433, 40.867760000885795 ] } },
{ "type": "Feature", "properties": { "line": "4", "name": "Bedford Park Blvd - Lehman College", "notes": "4-all times", "objectid": 260.0, "url": "http:\/\/web.mta.info\/nyct\/service\/" }, "geometry": { "type": "Point", "coordinates": [ -73.890064000694778, 40.873411999801213 ] } },
{ "type": "Feature", "properties": { "line": "3", "name": "Harlem - 148 St", "notes": "3-all times", "objectid": 261.0, "url": "http:\/\/web.mta.info\/nyct\/service\/" }, "geometry": { "type": "Point", "coordinates": [ -73.936470000055593, 40.823880000804571 ] } },
{ "type": "Feature", "properties": { "line": "4", "name": "Mt Eden Ave", "notes": "4-all times", "objectid": 262.0, "url": "http:\/\/web.mta.info\/nyct\/service\/" }, "geometry": { "type": "Point", "coordinates": [ -73.914684998603406, 40.844434000926789 ] } },
{ "type": "Feature", "properties": { "line": "B-D", "name": "Fordham Rd", "notes": "B-rush hours, D-all times", "objectid": 263.0, "url": "http:\/\/web.mta.info\/nyct\/service\/" }, "geometry": { "type": "Point", "coordinates": [ -73.89774900102401, 40.861295998683495 ] } },
{ "type": "Feature", "properties": { "line": "4", "name": "170th St", "notes": "4-all times", "objectid": 264.0, "url": "http:\/\/web.mta.info\/nyct\/service\/" }, "geometry": { "type": "Point", "coordinates": [ -73.917790997459278, 40.840074999930039 ] } },
{ "type": "Feature", "properties": { "line": "B-D", "name": "Bedford Park Blvd", "notes": "B-rush hours, D-all times", "objectid": 265.0, "url": "http:\/\/web.mta.info\/nyct\/service\/" }, "geometry": { "type": "Point", "coordinates": [ -73.887137998895739, 40.873243998616459 ] } },
{ "type": "Feature", "properties": { "line": "1", "name": "Marble Hill - 225th St", "notes": "1-all times", "objectid": 266.0, "url": "http:\/\/web.mta.info\/nyct\/service\/" }, "geometry": { "type": "Point", "coordinates": [ -73.90983099923551, 40.874560999417888 ] } },
{ "type": "Feature", "properties": { "line": "1", "name": "231st St", "notes": "1-all times", "objectid": 267.0, "url": "http:\/\/web.mta.info\/nyct\/service\/" }, "geometry": { "type": "Point", "coordinates": [ -73.904834001078726, 40.878855998179347 ] } },
{ "type": "Feature", "properties": { "line": "1", "name": "215th St", "notes": "1-all times", "objectid": 268.0, "url": "http:\/\/web.mta.info\/nyct\/service\/" }, "geometry": { "type": "Point", "coordinates": [ -73.91527899954356, 40.869443999460451 ] } },
{ "type": "Feature", "properties": { "line": "1", "name": "207th St", "notes": "1-all times", "objectid": 269.0, "url": "http:\/\/web.mta.info\/nyct\/service\/" }, "geometry": { "type": "Point", "coordinates": [ -73.918819001323115, 40.864614000525854 ] } },
{ "type": "Feature", "properties": { "line": "A", "name": "Inwood - 207th St", "notes": "A-all times", "objectid": 270.0, "url": "http:\/\/web.mta.info\/nyct\/service\/" }, "geometry": { "type": "Point", "coordinates": [ -73.919899001004651, 40.868071999997369 ] } },
{ "type": "Feature", "properties": { "line": "1", "name": "Van Cortlandt Park - 242nd St", "notes": "1-all times", "objectid": 271.0, "url": "http:\/\/web.mta.info\/nyct\/service\/" }, "geometry": { "type": "Point", "coordinates": [ -73.898583000496473, 40.889248000114762 ] } },
{ "type": "Feature", "properties": { "line": "2-5", "name": "West Farms Sq - E Tremont Av", "notes": "2-all times, 5-all times exc nights, skips rush hours AM southbound, PM northbound", "objectid": 272.0, "url": "http:\/\/web.mta.info\/nyct\/service\/" }, "geometry": { "type": "Point", "coordinates": [ -73.879961278771844, 40.840207632417993 ] } },
{ "type": "Feature", "properties": { "line": "2-5", "name": "219th St", "notes": "2-all times, 5-rush hours AM southbound, PM northbound", "objectid": 273.0, "url": "http:\/\/web.mta.info\/nyct\/service\/" }, "geometry": { "type": "Point", "coordinates": [ -73.862509707886602, 40.883887974625274 ] } },
{ "type": "Feature", "properties": { "line": "4", "name": "Mosholu Pkwy", "notes": "4-all times", "objectid": 274.0, "url": "http:\/\/web.mta.info\/nyct\/service\/" }, "geometry": { "type": "Point", "coordinates": [ -73.884654999887317, 40.879749999472288 ] } },
{ "type": "Feature", "properties": { "line": "D", "name": "Norwood - 205th St", "notes": "D-all times", "objectid": 275.0, "url": "http:\/\/web.mta.info\/nyct\/service\/" }, "geometry": { "type": "Point", "coordinates": [ -73.878854999186913, 40.874811000111819 ] } },
{ "type": "Feature", "properties": { "line": "2-5", "name": "Burke Ave", "notes": "2-all times, 5-rush hours AM southbound, PM northbound", "objectid": 276.0, "url": "http:\/\/web.mta.info\/nyct\/service\/" }, "geometry": { "type": "Point", "coordinates": [ -73.867053617476031, 40.871258802547707 ] } },
{ "type": "Feature", "properties": { "line": "5", "name": "Baychester Ave", "notes": "5-all times", "objectid": 277.0, "url": "http:\/\/web.mta.info\/nyct\/service\/" }, "geometry": { "type": "Point", "coordinates": [ -73.83859099802153, 40.878663000373109 ] } },
{ "type": "Feature", "properties": { "line": "5", "name": "Eastchester - Dyre Ave", "notes": "5-all times", "objectid": 278.0, "url": "http:\/\/web.mta.info\/nyct\/service\/" }, "geometry": { "type": "Point", "coordinates": [ -73.8308340021742, 40.888299999010073 ] } },
{ "type": "Feature", "properties": { "line": "F", "name": "Jamaica - 179th St", "notes": "F-all times", "objectid": 279.0, "url": "http:\/\/web.mta.info\/nyct\/service\/" }, "geometry": { "type": "Point", "coordinates": [ -73.783817001764533, 40.712645666744045 ] } },
{ "type": "Feature", "properties": { "line": "2", "name": "Wakefield - 241st St", "notes": "2-all times", "objectid": 280.0, "url": "http:\/\/web.mta.info\/nyct\/service\/" }, "geometry": { "type": "Point", "coordinates": [ -73.850619998795395, 40.903125000541245 ] } },
{ "type": "Feature", "properties": { "line": "S", "name": "Botanic Garden", "notes": "S Franklin Av-Fulton St to Prospect Park-all times", "objectid": 281.0, "url": "http:\/\/web.mta.info\/nyct\/service\/" }, "geometry": { "type": "Point", "coordinates": [ -73.959244999456928, 40.670342666584396 ] } },
{ "type": "Feature", "properties": { "line": "L", "name": "Bushwick - Aberdeen", "notes": "L-all times", "objectid": 282.0, "url": "http:\/\/web.mta.info\/nyct\/service\/" }, "geometry": { "type": "Point", "coordinates": [ -73.905261763051058, 40.682860625511843 ] } },
{ "type": "Feature", "properties": { "line": "L", "name": "Broadway Junction", "notes": "L-all times", "objectid": 283.0, "url": "http:\/\/web.mta.info\/nyct\/service\/" }, "geometry": { "type": "Point", "coordinates": [ -73.903117579206835, 40.678456248428688 ] } },
{ "type": "Feature", "properties": { "line": "5", "name": "Gun Hill Rd", "notes": "5-all times", "objectid": 284.0, "url": "http:\/\/web.mta.info\/nyct\/service\/" }, "geometry": { "type": "Point", "coordinates": [ -73.846384001517649, 40.869525999626759 ] } },
{ "type": "Feature", "properties": { "line": "2-5", "name": "E 180th St", "notes": "2,5-all times", "objectid": 285.0, "url": "http:\/\/web.mta.info\/nyct\/service\/" }, "geometry": { "type": "Point", "coordinates": [ -73.873346095108843, 40.841863041218602 ] } },
{ "type": "Feature", "properties": { "line": "1", "name": "Dyckman St", "notes": "1-all times", "objectid": 286.0, "url": "http:\/\/web.mta.info\/nyct\/service\/" }, "geometry": { "type": "Point", "coordinates": [ -73.925536000064739, 40.860531001387962 ] } },
{ "type": "Feature", "properties": { "line": "1", "name": "125th St", "notes": "1-all times", "objectid": 287.0, "url": "http:\/\/web.mta.info\/nyct\/service\/" }, "geometry": { "type": "Point", "coordinates": [ -73.958372000970442, 40.815580999978934 ] } },
{ "type": "Feature", "properties": { "line": "S", "name": "Franklin Ave - Fulton St", "notes": "S to Prospect Park-all times", "objectid": 288.0, "url": "http:\/\/web.mta.info\/nyct\/service\/" }, "geometry": { "type": "Point", "coordinates": [ -73.955827001104254, 40.680595665982629 ] } },
{ "type": "Feature", "properties": { "line": "2-5", "name": "149th St - Grand Concourse", "notes": "2-all times, 5-all times exc nights", "objectid": 289.0, "url": "http:\/\/web.mta.info\/nyct\/service\/" }, "geometry": { "type": "Point", "coordinates": [ -73.926722474386111, 40.818330144097423 ] } },
{ "type": "Feature", "properties": { "line": "2-5", "name": "3rd Ave - 149th St", "notes": "2-all times, 5-all times exc nights", "objectid": 290.0, "url": "http:\/\/web.mta.info\/nyct\/service\/" }, "geometry": { "type": "Point", "coordinates": [ -73.917791527609808, 40.816029252510006 ] } },
{ "type": "Feature", "properties": { "line": "4", "name": "167th St", "notes": "4-all times", "objectid": 291.0, "url": "http:\/\/web.mta.info\/nyct\/service\/" }, "geometry": { "type": "Point", "coordinates": [ -73.921399997844262, 40.835536999336718 ] } },
{ "type": "Feature", "properties": { "line": "6", "name": "Brook Ave", "notes": "6-all times", "objectid": 292.0, "url": "http:\/\/web.mta.info\/nyct\/service\/" }, "geometry": { "type": "Point", "coordinates": [ -73.919239999094316, 40.807565999876992 ] } },
{ "type": "Feature", "properties": { "line": "7", "name": "33rd St", "notes": "7-all times", "objectid": 293.0, "url": "http:\/\/web.mta.info\/nyct\/service\/" }, "geometry": { "type": "Point", "coordinates": [ -73.93099699953838, 40.744586999839932 ] } },
{ "type": "Feature", "properties": { "line": "7", "name": "40th St", "notes": "7-all times", "objectid": 294.0, "url": "http:\/\/web.mta.info\/nyct\/service\/" }, "geometry": { "type": "Point", "coordinates": [ -73.924015998488201, 40.743781001491321 ] } },
{ "type": "Feature", "properties": { "line": "A-B-C-D", "name": "145th St", "notes": "A,D-all times, B-weekdays and evenings, C-all times exc nights", "objectid": 295.0, "url": "http:\/\/web.mta.info\/nyct\/service\/" }, "geometry": { "type": "Point", "coordinates": [ -73.944087928231156, 40.824766360871905 ] } },
{ "type": "Feature", "properties": { "line": "B-D", "name": "155th St", "notes": "B-rush hours, D-all times, skips rush hours AM southbound, PM northbound", "objectid": 296.0, "url": "http:\/\/web.mta.info\/nyct\/service\/" }, "geometry": { "type": "Point", "coordinates": [ -73.938208998116224, 40.830134999981198 ] } },
{ "type": "Feature", "properties": { "line": "B-D", "name": "161st St - Yankee Stadium", "notes": "B-rush hours, D-all times, skips rush hours AM southbound, PM northbound", "objectid": 297.0, "url": "http:\/\/web.mta.info\/nyct\/service\/" }, "geometry": { "type": "Point", "coordinates": [ -73.925650997754772, 40.827904998845845 ] } },
{ "type": "Feature", "properties": { "line": "A-C", "name": "Utica Ave", "notes": "A-all times, C-all times exc nights", "objectid": 298.0, "url": "http:\/\/web.mta.info\/nyct\/service\/" }, "geometry": { "type": "Point", "coordinates": [ -73.930728999140271, 40.679363999505462 ] } },
{ "type": "Feature", "properties": { "line": "E-M-R", "name": "Steinway St", "notes": "E-nights, R-all other times, M-weekdays and evenings", "objectid": 299.0, "url": "http:\/\/web.mta.info\/nyct\/service\/" }, "geometry": { "type": "Point", "coordinates": [ -73.920526471682706, 40.756987359125752 ] } },
{ "type": "Feature", "properties": { "line": "J", "name": "Kosciuszko St", "notes": "J-all times", "objectid": 300.0, "url": "http:\/\/web.mta.info\/nyct\/service\/" }, "geometry": { "type": "Point", "coordinates": [ -73.928508999274129, 40.69317200129202 ] } },
{ "type": "Feature", "properties": { "line": "J-Z", "name": "Gates Ave", "notes": "Z-rush hours AM westbound, PM eastbound, J-all other times", "objectid": 301.0, "url": "http:\/\/web.mta.info\/nyct\/service\/" }, "geometry": { "type": "Point", "coordinates": [ -73.922156001507517, 40.689583999013905 ] } },
{ "type": "Feature", "properties": { "line": "M", "name": "Central Ave", "notes": "M-all times", "objectid": 302.0, "url": "http:\/\/web.mta.info\/nyct\/service\/" }, "geometry": { "type": "Point", "coordinates": [ -73.92724299902838, 40.697873000118307 ] } },
{ "type": "Feature", "properties": { "line": "M", "name": "Knickerbocker Ave", "notes": "M-all times", "objectid": 303.0, "url": "http:\/\/web.mta.info\/nyct\/service\/" }, "geometry": { "type": "Point", "coordinates": [ -73.919720001886247, 40.698660001238053 ] } },
{ "type": "Feature", "properties": { "line": "N-W", "name": "30th Ave", "notes": "N-all times, W part time", "objectid": 304.0, "url": "http:\/\/web.mta.info\/nyct\/service\/" }, "geometry": { "type": "Point", "coordinates": [ -73.921479000173903, 40.766778666732982 ] } },
{ "type": "Feature", "properties": { "line": "L", "name": "Jefferson St", "notes": "L-all times", "objectid": 305.0, "url": "http:\/\/web.mta.info\/nyct\/service\/" }, "geometry": { "type": "Point", "coordinates": [ -73.922913000031201, 40.706606665988716 ] } },
{ "type": "Feature", "properties": { "line": "L", "name": "Morgan Ave", "notes": "L-all times", "objectid": 306.0, "url": "http:\/\/web.mta.info\/nyct\/service\/" }, "geometry": { "type": "Point", "coordinates": [ -73.933147000242087, 40.706151666807287 ] } },
{ "type": "Feature", "properties": { "line": "E-M-R", "name": "Queens Plz", "notes": "E-all times, M-weekdays and evenings, R-all times exc nights", "objectid": 307.0, "url": "http:\/\/web.mta.info\/nyct\/service\/" }, "geometry": { "type": "Point", "coordinates": [ -73.937138239656946, 40.748917719863229 ] } },
{ "type": "Feature", "properties": { "line": "F", "name": "18th Ave", "notes": "F-all times", "objectid": 308.0, "url": "http:\/\/web.mta.info\/nyct\/service\/" }, "geometry": { "type": "Point", "coordinates": [ -73.976970999657965, 40.629754666385843 ] } },
{ "type": "Feature", "properties": { "line": "R", "name": "77th St", "notes": "R-all times", "objectid": 309.0, "url": "http:\/\/web.mta.info\/nyct\/service\/" }, "geometry": { "type": "Point", "coordinates": [ -74.025509999626607, 40.629741666886915 ] } },
{ "type": "Feature", "properties": { "line": "R", "name": "Bay Ridge Ave", "notes": "R-all times", "objectid": 310.0, "url": "http:\/\/web.mta.info\/nyct\/service\/" }, "geometry": { "type": "Point", "coordinates": [ -74.023376999507278, 40.634966666823772 ] } },
{ "type": "Feature", "properties": { "line": "D", "name": "50th St", "notes": "D-all times", "objectid": 311.0, "url": "http:\/\/web.mta.info\/nyct\/service\/" }, "geometry": { "type": "Point", "coordinates": [ -73.994658780551404, 40.636260890961395 ] } },
{ "type": "Feature", "properties": { "line": "N", "name": "Ft Hamilton Pkwy", "notes": "N-all times", "objectid": 312.0, "url": "http:\/\/web.mta.info\/nyct\/service\/" }, "geometry": { "type": "Point", "coordinates": [ -74.005351000462753, 40.63138566722445 ] } },
{ "type": "Feature", "properties": { "line": "D", "name": "25th Ave", "notes": "D-all times", "objectid": 313.0, "url": "http:\/\/web.mta.info\/nyct\/service\/" }, "geometry": { "type": "Point", "coordinates": [ -73.986829000114767, 40.597703666958559 ] } },
{ "type": "Feature", "properties": { "line": "D", "name": "Bay Pky", "notes": "D-all times", "objectid": 314.0, "url": "http:\/\/web.mta.info\/nyct\/service\/" }, "geometry": { "type": "Point", "coordinates": [ -73.993676200052903, 40.601950461572315 ] } },
{ "type": "Feature", "properties": { "line": "N", "name": "20th Ave", "notes": "N-all times", "objectid": 315.0, "url": "http:\/\/web.mta.info\/nyct\/service\/" }, "geometry": { "type": "Point", "coordinates": [ -73.984521998461133, 40.617108999866005 ] } },
{ "type": "Feature", "properties": { "line": "N", "name": "18th Ave", "notes": "N-all times", "objectid": 316.0, "url": "http:\/\/web.mta.info\/nyct\/service\/" }, "geometry": { "type": "Point", "coordinates": [ -73.99045399865993, 40.620686997680025 ] } },
{ "type": "Feature", "properties": { "line": "R", "name": "Bay Ridge - 95th St", "notes": "R-all times", "objectid": 317.0, "url": "http:\/\/web.mta.info\/nyct\/service\/" }, "geometry": { "type": "Point", "coordinates": [ -74.030876000857646, 40.616621667259508 ] } },
{ "type": "Feature", "properties": { "line": "R", "name": "86th St", "notes": "R-all times", "objectid": 318.0, "url": "http:\/\/web.mta.info\/nyct\/service\/" }, "geometry": { "type": "Point", "coordinates": [ -74.028397999986396, 40.622686667150248 ] } },
{ "type": "Feature", "properties": { "line": "D", "name": "79th St", "notes": "D-all times", "objectid": 319.0, "url": "http:\/\/web.mta.info\/nyct\/service\/" }, "geometry": { "type": "Point", "coordinates": [ -74.000582874315072, 40.61315892569516 ] } },
{ "type": "Feature", "properties": { "line": "D", "name": "71st St", "notes": "D-all times", "objectid": 320.0, "url": "http:\/\/web.mta.info\/nyct\/service\/" }, "geometry": { "type": "Point", "coordinates": [ -73.998840948506853, 40.61925870977273 ] } },
{ "type": "Feature", "properties": { "line": "D", "name": "20th Ave", "notes": "D-all times", "objectid": 321.0, "url": "http:\/\/web.mta.info\/nyct\/service\/" }, "geometry": { "type": "Point", "coordinates": [ -73.998174321575675, 40.604676998169317 ] } },
{ "type": "Feature", "properties": { "line": "D", "name": "18th Ave", "notes": "D-all times", "objectid": 322.0, "url": "http:\/\/web.mta.info\/nyct\/service\/" }, "geometry": { "type": "Point", "coordinates": [ -74.001592592394061, 40.607735731717412 ] } },
{ "type": "Feature", "properties": { "line": "D", "name": "62nd St", "notes": "D-all times", "objectid": 323.0, "url": "http:\/\/web.mta.info\/nyct\/service\/" }, "geometry": { "type": "Point", "coordinates": [ -73.996857249948633, 40.626224462922195 ] } },
{ "type": "Feature", "properties": { "line": "N", "name": "New Utrecht Ave", "notes": "N-all times", "objectid": 324.0, "url": "http:\/\/web.mta.info\/nyct\/service\/" }, "geometry": { "type": "Point", "coordinates": [ -73.996353000259688, 40.62484166725887 ] } },
{ "type": "Feature", "properties": { "line": "F", "name": "Ave U", "notes": "F-all times", "objectid": 325.0, "url": "http:\/\/web.mta.info\/nyct\/service\/" }, "geometry": { "type": "Point", "coordinates": [ -73.973376419748845, 40.595924825517478 ] } },
{ "type": "Feature", "properties": { "line": "F", "name": "Kings Hwy", "notes": "F-all times", "objectid": 326.0, "url": "http:\/\/web.mta.info\/nyct\/service\/" }, "geometry": { "type": "Point", "coordinates": [ -73.972355308524399, 40.603258405128265 ] } },
{ "type": "Feature", "properties": { "line": "B-Q", "name": "Brighton Beach", "notes": "B-weekdays and evenings, Q-all times", "objectid": 327.0, "url": "http:\/\/web.mta.info\/nyct\/service\/" }, "geometry": { "type": "Point", "coordinates": [ -73.961353785987967, 40.577710196642435 ] } },
{ "type": "Feature", "properties": { "line": "B-Q", "name": "Sheepshead Bay", "notes": "B-weekdays and evenings, Q-all times", "objectid": 328.0, "url": "http:\/\/web.mta.info\/nyct\/service\/" }, "geometry": { "type": "Point", "coordinates": [ -73.954057912579074, 40.586547547075362 ] } },
{ "type": "Feature", "properties": { "line": "Q", "name": "Ave U", "notes": "Q-all times", "objectid": 329.0, "url": "http:\/\/web.mta.info\/nyct\/service\/" }, "geometry": { "type": "Point", "coordinates": [ -73.95581122316301, 40.59930895095475 ] } },
{ "type": "Feature", "properties": { "line": "B-Q", "name": "Kings Hwy", "notes": "B-weekdays and evenings, Q-all times", "objectid": 330.0, "url": "http:\/\/web.mta.info\/nyct\/service\/" }, "geometry": { "type": "Point", "coordinates": [ -73.95760873538083, 40.608638645396006 ] } },
{ "type": "Feature", "properties": { "line": "N", "name": "Ave U", "notes": "N-all times", "objectid": 331.0, "url": "http:\/\/web.mta.info\/nyct\/service\/" }, "geometry": { "type": "Point", "coordinates": [ -73.979084000994277, 40.597235999920436 ] } },
{ "type": "Feature", "properties": { "line": "N", "name": "Kings Hwy", "notes": "N-all times", "objectid": 332.0, "url": "http:\/\/web.mta.info\/nyct\/service\/" }, "geometry": { "type": "Point", "coordinates": [ -73.980373002293433, 40.604058999804927 ] } },
{ "type": "Feature", "properties": { "line": "F", "name": "Neptune Ave", "notes": "F-all times", "objectid": 333.0, "url": "http:\/\/web.mta.info\/nyct\/service\/" }, "geometry": { "type": "Point", "coordinates": [ -73.974592728188071, 40.580738758491464 ] } },
{ "type": "Feature", "properties": { "line": "F", "name": "Ave X", "notes": "F-all times", "objectid": 334.0, "url": "http:\/\/web.mta.info\/nyct\/service\/" }, "geometry": { "type": "Point", "coordinates": [ -73.974265999689052, 40.589449666625285 ] } },
{ "type": "Feature", "properties": { "line": "D", "name": "Bay 50th St", "notes": "D-all times", "objectid": 335.0, "url": "http:\/\/web.mta.info\/nyct\/service\/" }, "geometry": { "type": "Point", "coordinates": [ -73.983765000459456, 40.588840666519332 ] } },
{ "type": "Feature", "properties": { "line": "N", "name": "Gravesend - 86th St", "notes": "N-all times", "objectid": 336.0, "url": "http:\/\/web.mta.info\/nyct\/service\/" }, "geometry": { "type": "Point", "coordinates": [ -73.978188999362743, 40.592465000888588 ] } },
{ "type": "Feature", "properties": { "line": "F", "name": "Ave P", "notes": "F-all times", "objectid": 337.0, "url": "http:\/\/web.mta.info\/nyct\/service\/" }, "geometry": { "type": "Point", "coordinates": [ -73.973002815287515, 40.608842808949916 ] } },
{ "type": "Feature", "properties": { "line": "F", "name": "Ave N", "notes": "F-all times", "objectid": 338.0, "url": "http:\/\/web.mta.info\/nyct\/service\/" }, "geometry": { "type": "Point", "coordinates": [ -73.974048508731428, 40.614356711908833 ] } },
{ "type": "Feature", "properties": { "line": "F", "name": "Bay Pky", "notes": "F-all times", "objectid": 339.0, "url": "http:\/\/web.mta.info\/nyct\/service\/" }, "geometry": { "type": "Point", "coordinates": [ -73.975256978221495, 40.620731623167877 ] } },
{ "type": "Feature", "properties": { "line": "Q", "name": "Ave M", "notes": "Q-all times", "objectid": 340.0, "url": "http:\/\/web.mta.info\/nyct\/service\/" }, "geometry": { "type": "Point", "coordinates": [ -73.959243105221503, 40.617397744443736 ] } },
{ "type": "Feature", "properties": { "line": "N", "name": "Bay Pky", "notes": "N-all times", "objectid": 341.0, "url": "http:\/\/web.mta.info\/nyct\/service\/" }, "geometry": { "type": "Point", "coordinates": [ -73.98178001069293, 40.611455789890051 ] } },
{ "type": "Feature", "properties": { "line": "F", "name": "Ave I", "notes": "F-all times", "objectid": 342.0, "url": "http:\/\/web.mta.info\/nyct\/service\/" }, "geometry": { "type": "Point", "coordinates": [ -73.976069331709255, 40.625017440191428 ] } },
{ "type": "Feature", "properties": { "line": "Q", "name": "Ave J", "notes": "Q-all times", "objectid": 343.0, "url": "http:\/\/web.mta.info\/nyct\/service\/" }, "geometry": { "type": "Point", "coordinates": [ -73.960693162469255, 40.625022819915166 ] } },
{ "type": "Feature", "properties": { "line": "Q", "name": "Ave H", "notes": "Q-all times", "objectid": 344.0, "url": "http:\/\/web.mta.info\/nyct\/service\/" }, "geometry": { "type": "Point", "coordinates": [ -73.961517939424951, 40.629208377589691 ] } },
{ "type": "Feature", "properties": { "line": "Q", "name": "Neck Rd", "notes": "Q-all times", "objectid": 345.0, "url": "http:\/\/web.mta.info\/nyct\/service\/" }, "geometry": { "type": "Point", "coordinates": [ -73.95507827493762, 40.595321691116951 ] } },
{ "type": "Feature", "properties": { "line": "F", "name": "21st St - Queensbridge", "notes": "F-all times", "objectid": 346.0, "url": "http:\/\/web.mta.info\/nyct\/service\/" }, "geometry": { "type": "Point", "coordinates": [ -73.941937614574471, 40.753739270875528 ] } },
{ "type": "Feature", "properties": { "line": "A-C-E", "name": "50th St", "notes": "A-nights, C-all other times, E-all times", "objectid": 347.0, "url": "http:\/\/web.mta.info\/nyct\/service\/" }, "geometry": { "type": "Point", "coordinates": [ -73.985984000264068, 40.76245599925997 ] } },
{ "type": "Feature", "properties": { "line": "B-D-E", "name": "7th Ave", "notes": "D,E-all times, B-weekdays and evenings", "objectid": 348.0, "url": "http:\/\/web.mta.info\/nyct\/service\/" }, "geometry": { "type": "Point", "coordinates": [ -73.981697823444762, 40.762970152456283 ] } },